"name","code","localCode","address","lon","lat","num","quyu"
"天坛北门站","01010001","01001","天坛北门对面","116.411721592","39.8884139665","30","0101"
"地铁天坛东门南侧站","01010002","01002","天坛东门南侧50米","116.420529721","39.8832421902","40","0101"
"天坛南门公交站","01010003","01003","永定门东街 同仁堂东侧","116.417116391","39.8733196936","25","0101"
"永定门东大街站","01010004","01004","永定门东街公交站西侧","116.407284607","39.8730178664","25","0101"
"永定门东大街西站","01010005","01005","永定门东大街锦江之星楼前","116.404020466","39.8729487407","25","0101"
"幸福大街站","01010006","01006","幸福大街32号院北侧","116.431194678","39.8885054945","20","0101"
"广渠门内大街站","01010007","01007","广渠门内大街北侧 家乐福南侧","116.431328668","39.8939415125","25","0101"
"东花市大街东站","01010008","01008","东花市大街东口南侧","116.437992561","39.8976069557","34","0101"
"崇文门东大街站","01010009","01009","崇文门东大街与崇文门外大街交叉口西南角","116.422688487","39.9003819349","30","0101"
"地铁张自忠路A口站","01010010","01010","地铁张自忠路A出口","116.416684899","39.9337067731","30","0101"
"钱粮胡同东口站","01010011","01011","钱粮胡同口东口北侧","116.417306186","39.9281147129","25","0101"
"天坛西门站","01010012","01012","天坛西门对面","116.399997043","39.8811334609","35","0101"
"好润大厦站","01010013","01013","灯市口大街北侧","116.415478857","39.9187844523","25","0101"
"智德北巷东口站","01010014","01014","智德北巷东口北侧","116.406360362","39.9187786628","20","0101"
"大甜水井胡同西口站","01010015","01015","大甜水井胡同西口南侧","116.407821518","39.9120106792","30","0101"
"中国美术馆站","01010016","01016","五四大街美术馆西侧","116.408383989","39.9245421616","30","0101"
"地铁建国门C口站","01010017","01017","建国门地铁C出口","116.434346681","39.908211836","40","0101"
"地铁建国门A口站","01010018","01018","地铁建国门A出口","116.434017919","39.9095683241","40","0101"
"红星胡同东口站","01010019","01019","红星胡同东口北侧","116.426576712","39.9146186123","25","0101"
"大方家胡同站","01010020","01020","朝阳门社区服务中心对面","116.428373356","39.9192312938","30","0101"
"内蒙古大厦站","01010021","01021","崇文门内大街内蒙古大厦楼前","116.418440733","39.905160976","30","0101"
"地铁朝阳门B口站","01010022","01022","地铁朝阳门B口","116.433821009","39.9236216461","50","0101"
"地铁东四C口","01010023","01023","地铁东四C口","116.417881551","39.9241568559","40","0101"
"地铁东四十条D口","01010024","01024","地铁东四十条D出口","116.433406403","39.9331444222","50","0101"
"天坛饭店站","01010025","01025","体育馆路东口北侧天坛饭店门前","116.431053451","39.8843678963","30","0101"
"龙潭湖公园北门站","01010026","01026","龙潭公园北门","116.440047802","39.8814722418","30","0101"
"崇文工人文化馆站","01010027","01027","幸福大街崇文工人文化宫门前","116.431433296","39.8861082694","30","0101"
"北京玉器厂站","01010028","01028","光明路北侧北京玉器厂门前","116.435624159","39.8844575044","25","0101"
"电信工程站","01010029","01029","夕照寺街北口东侧 工程局电信营业厅门前","116.43999818","39.8922520924","30","0101"
"龙潭湖门诊部站","01010030","01030","夕照寺街南口东侧","116.440553943","39.8829644923","25","0101"
"龙潭路西口站","01010031","01031","龙潭路西口路北","116.403700589","39.8878501975","30","0101"
"天坛路鑫方盛站","01010032","01032","天坛路北侧3号楼前","116.421890723","39.8810541581","30","0101"
"长青园小区站","01010033","0033","长青园小区8号楼东北方向","116.428531534","39.8771402959","15","0101"
"红桥路口北东侧站","01010034","01034","崇文门外大街西塘街西口南","116.419186277","39.8900986385","25","0101"
"新文化纪念馆站","01010035","01035","五四大街新文化纪念馆前","116.405506257","39.9243617518","25","0101"
"南剪子巷北口站","01010036","01036","张自忠路南剪子巷北口西侧","116.411626287","39.9332856565","25","0101"
"地铁北新桥站","01010037","01037","地铁北新桥西北口西侧","116.416395483","39.9410458189","30","0101"
"地坛体育馆站","01010038","01038","和平里中街西口","116.409456271","39.9571886247","34","0101"
"安定门东大街东口站","01010039","01039","安定门东大街杰民移民前","116.428630598","39.9494650331","30","0101"
"和平里大酒店站","01010040","01040","和平里大酒店门前西侧","116.419790081","39.9591453103","30","0101"
"忠实里文汇中学站","01010041","01001","忠实里社区服务站门前","116.444856813","39.8974083322","29","0101"
"三利百货站","01010042","01042","安定门外大街三利百货门前","116.408534251","39.9526095106","30","0101"
"皇城国际站","01010043","01043","安定门外大街皇城国际门前","116.40832503","39.9555379621","30","0101"
"蒋宅口站","01010044","01044","安定门外大街安德里北街东口北侧","116.407843977","39.9578666223","25","0101"
"永安堂药店站","01010045","01045","安定门外大街皇城国际对面","116.4077824","39.9555439431","25","0101"
"交道口东大街西口站","01010046","01046","交道口东大街天客隆超市门前","116.409600093","39.9409513052","30","0101"
"民安街站","01010047","01047","东直门北小街民安街西口路南","116.425876407","39.9447630971","30","0101"
"地铁雍和宫C口站","01010048","01048","地铁雍和宫东南口","116.41717196","39.9491918664","40","0101"
"北花市大街北口站","01010049","01049","北花市大街北口西侧","116.42725472","39.8994144819","30","0101"
"白桥大街北口站","01010050","01050","如家酒店北侧","116.438793712","39.8993508311","30","0101"
"体育馆西门站","01010051","01051","新中街工人体育馆西门对面","116.439631729","39.9320108805","25","0101"
"春秀路站","01010052","01052","春秀路一号楼交通银行对面","116.44432622","39.9384519136","30","0101"
"新中街西里站","01010053","01053","新中街西里7号楼下","116.439792308","39.9350712844","30","0101"
"地铁东直门东北口站","01010054","01054","东直门立交桥东北侧","116.434483467","39.9418957602","25","0101"
"地铁东四十条B口站","01010055","01055","地铁东四十条B口东行50米","116.43616542","39.9339295147","30","0101"
"刘老根大舞台站","01010056","01056","前门东路刘老根大舞台对面","116.400906052","39.8939872033","30","0101"
"前门东路北口站","01010057","01057","前门东街便宜坊对面","116.401034998","39.8970623243","25","0101"
"工人体育馆北路站","01010058","01058","工人体育馆北门对面西侧","116.440756356","39.9339195722","30","0101"
"全新大药房站","01010059","01059","安定门内大街永康胡同西口南侧","116.408485627","39.9464338916","24","0101"
"国家林业局站","01010060","01060","和平里东街中国林业局门前天桥下","116.425460135","39.9561454575","25","0101"
"东四十二条站","01010061","01061","东四北大街东四十二条对面","116.417018973","39.9350183925","40","0101"
"向新西里西侧站","01010062","01062","左安门西街向新西里22号楼南侧","116.437106376","39.8725316349","30","0101"
"天泽祥菜市场站","01010063","01063","平安大街小街路口东150米北侧","116.42748846","39.9337999336","30","0101"
"外斜街南口站","01010064","01064","东直门外斜街南口东侧中国烟草门前","116.439878284","39.941351833","20","0101"
"大草厂胡同北站","01010065","01065","东皇城根南街大草厂胡同北侧","116.407019894","39.9206500416","25","0101"
"中国棋院站","01010066","01066","天坛东路南口中国棋院门前","116.421633547","39.8744210115","30","0101"
"龙潭公园西门站","01010067","01067","左安门内大街龙潭公园西门路对面","116.438924775","39.8763563967","30","0101"
"华侨大厦站","01010068","01068","东四西大街民航总局对面","116.412283388","39.9241465024","25","0101"
"美术馆后街北站","01010069","01069","美术馆后街中国美术院前","116.409092643","39.9317300155","50","0101"
"朝内小街口站","01010070","01070","朝阳门内大街139号前","116.424514436","39.9245903728","30","0101"
"新闻出版大厦站","01010071","01071","朝阳门内大街豆瓣胡同南口路西","116.431816931","39.925006317","30","0101"
"台湾饭店西侧站","01010072","01072","金鱼胡同19号楼前","116.41311598","39.9155754784","60","0101"
"财政局站","01010073","01073","东直门外大街十字坡街北口路东","116.439137924","39.9403170586","20","0101"
"和平里北街站","01010074","01074","和平里西街兴华东里14号楼东侧","116.418162938","39.9598490737","30","0101"
"兴隆街车站","01010075","01075","祈年大街茶食胡同东口北侧","116.412068731","39.8954547697","30","0101"
"金宝街东口北侧站","01010076","01076","金宝街东口北侧","116.434236376","39.9156908024","30","0101"
"东单体育馆站","01010077","01077","崇文门内大街北口西侧天桥下","116.417920587","39.9074879257","25","0101"
"祈年大街北口站","01010078","01078","前门东大街4号楼前","116.410547213","39.9006780287","40","0101"
"崇文门饭店站","01010079","01079","崇文门路口崇文门饭店前","116.418226087","39.900324207","40","0101"
"民安街东口站","01010080","01080","东直门桥北第一个天桥下西侧","116.433393801","39.9441126863","40","0101"
"安定门西南角站","01010081","01081","安定门桥西南角灵光胡同北口","116.407259753","39.9488263798","50","0101"
"体育馆路西站","01010082","01082","体育馆路6号前","116.423656047","39.8837928352","34","0101"
"光明桥西北角站","01010083","01083","光明路板厂南里3号楼前","116.441814424","39.8846421018","29","0101"
"天坛公园东北角站","01010084","01084","天坛公园东北角","116.419477724","39.8864452006","60","0101"
"玉蜓桥公园站","01010085","01085","永定门东大街东口南侧","116.420584209","39.8732657109","35","0101"
"和平里医院站","01010086","01086","和平里北街和平里医院对面","116.412797727","39.9593193441","50","0101"
"兴隆街西口站","01010087","01087","祈年大街东兴隆街西口路对面南侧","116.411975418","39.896827212","45","0101"
"天坛北门北西侧站","01010088","01088","祈年大街东晓市街西口对面南侧","116.412363727","39.8901823643","40","0101"
"和平里北街西口站","01010089","01089","和平里北街西口南侧","116.411827687","39.9589938235","39","0101"
"和平里路口西站","01010090","01090","和平里7区2号楼前","116.423381293","39.959545771","30","0101"
"安外北京人才大厦北侧站","01010091","01091","地坛西门对面","116.407838346","39.9533570457","45","0101"
"名酒城站","01010092","01092","朝内小街西200米路南","116.427688842","39.9246054733","30","0101"
"和平里南街东口站","01010093","01093","和平里东街和平里南街路口东北角","116.426060202","39.9543317934","55","0101"
"培新街站","01010094","01010094","培新街东口保利蔷薇园门前","116.438217732","39.891786929","25","0101"
"南花市大街崇外街道站","01010095","01001","西花市南里东区崇外街道办事处楼下","116.4274825","39.8945340873","35","0101"
"正义路站","01010096","01010096","正义路7号门前","116.406494238","39.9038824859","30","0101"
"北新桥三条西口站","01010097","01097","雍和宫大街北新桥三条西口北侧","116.416822944","39.9435163061","30","0101"
"龙潭北门西侧站","01010098","01010098","龙潭路龙潭北里六条对面","116.438178045","39.8810826985","55","0101"
"龙潭路站","01010099","01010099","龙潭路东四块玉南街北口东侧","116.424143249","39.8806637336","19","0101"
"前门街道站","01010100","01010100","前门东大街14号楼前","116.400936086","39.9001502855","25","0101"
"天坛东路南口站","01010101","01010101","天坛东路北京银行对面","116.420800797","39.8763434811","55","0101"
"中国黄金站","01010102","01010102","和平里北街西口路北","116.406351876","39.9593303589","25","0101"
"雍和宫大街站","01010103","01010103","雍和宫大街117号门前","116.416402908","39.9464077589","30","0101"
"金鱼池站","01010104","01010104","天坛路金鱼池中区东侧","116.408666245","39.888352715","25","0101"
"东直门医院站","01010105","01010105","海运仓东直门医院门前东侧","116.427895164","39.9365891203","29","0101"
"东直门内稻香村站","01010106","01010106","东直门内大街与小街路口西侧路北","116.423857871","39.9412420437","24","0101"
"俄罗斯大使馆站","01010107","01010107","东直门北中街北口西侧","116.428503501","39.9441040249","30","0101"
"金宝街东口南侧站","01010108","01010108","金宝街东口南侧","116.434246949","39.9151668751","25","0101"
"体育馆路口东北角站","01010109","01010109","体育馆路与体育馆西路路口东北角","116.425132421","39.8842289086","30","0101"
"李村公交车站站","01010110","01010110","李村公交车站北100米","116.413787288","39.8673485875","39","0101"
"琉璃井公交车站站","01010111","01010111","琉璃井公交车站北100米","116.414118343","39.8649577727","29","0101"
"南小市口街北口站","01010112","01010112","东花市大街人民法院报对面","116.430972925","39.89705395","40","0101"
"东中街站","01010113","01010113","王家园胡同与东中街路口东北角","116.436748261","39.9317807263","29","0101"
"北新仓胡同站","01010114","01010114","北新仓胡同东口路北","116.430500158","39.9403524676","29","0101"
"玉蜓桥北侧站","01010115","01010115","天坛东路南口西侧","116.420657858","39.8735729222","25","0101"
"体育馆西路北口站","01010116","01010116","体育馆西路北口东侧","116.423931987","39.8860451558","30","0101"
"北京京坛医院景泰路站","01010117","01010117","景泰路与安乐林路西南角","116.412991913","39.8650413519","29","0101"
"幸福大街南站","01010118","01010118","幸福大街原崇文政府南侧","116.431401674","39.8876410691","29","0101"
"红桥路口北西侧站","01010119","01010119","崇文门外大街新世界地产前","116.418569794","39.8880516348","30","0101"
"协和医院西门站","01010120","01010120","校尉胡同南口东侧","116.414192058","39.910946193","32","0101"
"正义路南口站","01010121","01010121","前门东大街正义路南口东南角","116.407073663","39.9005060016","34","0101"
"景山后街站","01010122","01010122","景山后街东口北侧","116.397324391","39.9288520728","34","0101"
"景山东街北口站","01010123","01010123","景山东街北口东侧","116.399661614","39.9282403817","23","0101"
"向新西里东站","01010124","01010124","左安门西街向新西里东侧","116.439033308","39.8724028935","32","0101"
"夕照寺中街站","01010125","01010125","夕照寺中街绿景馨园东区6号楼前","116.441432033","39.8893985384","67","0101"
"夕照寺中街东口站","01010126","01010126","夕照寺中街板厂新里81号楼前","116.44336203","39.8889975818","32","0101"
"左安门西街站","01010127","01010127","左安门西街消防支队门前东侧","116.432032394","39.8729312701","25","0101"
"安乐林路工商银行站","01010128","01010128","安乐林路工商银行东侧50米","116.410144968","39.8652748006","64","0101"
"地铁东四十条C口站","01010129","01010129","地铁东四十条东南角","116.435323641","39.933069774","32","0101"
"光明桥北站","01010130","01010130","光明东路1号院东侧","116.443504224","39.8876011982","28","0101"
"东直门北中街南口站","01010131","01010131","东直门北中街南口东侧","116.429129954","39.9418829822","30","0101"
"东直门中学站","01010132","01010132","东直门中学对面","116.42939561","39.9445143294","29","0101"
"北京站西街西口站","01010133","01010133","公交北京站西街西口站东侧","116.420620964","39.9030604177","30","0101"
"公交亮果厂站","01010134","01010134","北河沿大街嵩祝院北巷东口北侧","116.405334262","39.9308531255","40","0101"
"地铁灯市口A口站","01010135","01010135","地铁灯市口A口站","116.417179454","39.9181677993","30","0101"
"崇文门外大街北口站","01010136","01010136","崇文门内大街北口路东东单体育馆对面","116.418551827","39.9069311973","40","0101"
"地铁北新桥C口站","01010137","01010137","地铁北新桥C出口","116.417399255","39.9398242434","39","0101"
"北小街仓南胡同西口站","01010138","01010138","东四四条东口对面","116.427913974","39.9271847635","25","0101"
"东四十条小街路站","01010139","01010139","东四十条小街路口东南角60米","116.426833644","39.9332610521","30","0101"
"公交东四十条站","01010140","01010140","公交东四十条站西60米西侧","116.421654737","39.933114437","27","0101"
"光明楼公交车站站","01010141","01010141","光明路华普超市前","116.439180571","39.884669949","15","0101"
"东四十条125号站","01010142","01010142","张自忠路口东300米北侧","116.418938466","39.9340668766","28","0101"
"公交张自忠路站","01010143","01010143","段其瑞政府对面","116.415219856","39.9328799666","20","0101"
"东四十条青蓝大厦站","01010144","01010144","东四十条青蓝大厦对面","116.430797607","39.9339276878","23","0101"
"安外公交蒋宅口站","01010145","01010145","安外蒋宅口公交站东侧","116.408867677","39.9615182635","29","0101"
"安外中国石化报站","01010146","01010146","安外中国石化报出版社南侧","116.408319085","39.963635244","30","0101"
"朝内小街站","01010147","01010147","朝内小街西南角","116.425775512","39.923829736","27","0101"
"景山公园东门站","01010148","01010148","景山东街景山公园东门对面","116.399912368","39.9261372041","27","0101"
"先农坛公交车站北站","01010149","01010149","永定门内大街先农坛车站北侧","116.400577326","39.8776799897","30","0101"
"先农坛公交车站南站","01010150","01010150","永定门内大街先农坛车站南侧","116.400703054","39.8770429693","29","0101"
"地铁2号线东直门C口站","01010151","01010151","东直门桥东南角","116.434910656","39.9404326427","27","0101"
"五老胡同站","01010152","01010152","五老胡同垃圾清理站南侧","116.415145104","39.8964607631","20","0101"
"地铁磁器口D 出口站","01010153","01010153","磁器口西南角南50米","116.418430234","39.8923127338","25","0101"
"前门街道办事处站","01010154","01010154","珠市口东大街13号楼北侧","116.405058031","39.8927981642","15","0101"
"永外管村路站","01010155","01010155","管村路10号楼前","116.397278151","39.864138401","20","0101"
"安乐林路站","01010156","01010156","安乐林路天天家园社区","116.407655014","39.8648675269","20","0101"
"地铁朝阳门F口站","01010157","01010157","朝阳门地铁F口外","116.433909171","39.9263154645","25","0101"
"陶然亭桥站","01010158","01010158","陶然桥东南角","116.389067361","39.8704478268","35","0101"
"安乐林路西口站","01010159","01010159","安乐林路永外街道西侧","116.401716671","39.8656027088","20","0101"
"安乐林社区站","01010160","01010160","永外安乐林社区前","116.40856896","39.8638224517","15","0101"
"友谊医院站","01020001","0102080001","西经路北京友谊医院西门北侧","116.390142147","39.8857208132","35","0102"
"南横东街站","01020002","0102070002","南横东街与菜市口大街交叉口东北侧","116.374993445","39.8834101166","35","0102"
"牛街西里站","01020003","0102020003","枣林前街 牛街西里二区10号楼","116.360248398","39.8834454558","25","0102"
"广安口腔门诊站","01020004","0102080004","枣林前街中环广安门口腔门诊部","116.354226889","39.8834373427","20","0102"
"广安体育中心站","01020005","0102070005","南线阁街广安体育中心西门北侧","116.353418356","39.8874791544","35","0102"
"枣林前街站","01020006","0102020006","枣林前街与南线阁街交叉口西北侧","116.3522379","39.8834396035","45","0102"
"菜园街站","01020007","0102040007","菜园街一号院南侧","116.353576121","39.8816628931","20","0102"
"基业大厦站","01020008","0102040008","南线阁街基业大厦","116.353350982","39.8886182707","25","0102"
"油坊胡同站","01020009","0102040009","油坊胡同与北新平胡同交叉口东南侧","116.37739869","39.9057769385","40","0102"
"地铁车公庄E口站","01020010","0102010010","北礼士路与车公庄大街西北角","116.353299132","39.9328353747","40","0102"
"大观园西门站","01020011","0102040011","南菜园街 大观园西门南侧","116.354069119","39.8729698225","25","0102"
"消防总队站","01020012","0102020012","西直门南小街 北京消防总队门口南侧","116.3586084","39.9400789608","35","0102"
"西直门南小街站","01020013","0102050013","西直门南小街环境保护部对面（过街桥下）","116.359161536","39.9331543513","40","0102"
"北礼士路62号站","01020014","0102020014","北礼士路62号院1号楼","116.353552315","39.9293514347","30","0102"
"西直门南小街22号站","01020015","0102040015","西直门南小街22号楼前（北京燃气大厦）","116.35898861","39.937156635","30","0102"
"南运巷站","01020016","0102020016","枣林前街与广安门南街交叉口以东（南运巷3号楼前）","116.3507374","39.8832061369","30","0102"
"华北电力站","01020017","0102040017","广安门南街 国家电网华北电力交易中心西门北侧","116.350439566","39.888968493","45","0102"
"西城委员会站","01020018","0102080018","二龙路西街西城委员会西侧对面（停车场前）","116.36624186","39.9121658738","35","0102"
"京几道小区站","01020019","0102020019","中京畿道京几道小区南门东侧","116.368142092","39.9091658389","55","0102"
"二龙路站","01020020","0102020020","二龙路药妆大药房南侧","116.366885672","39.9095805904","35","0102"
"北礼士路站","01020021","0102020021","北礼士路北口西侧（靠近西直门桥）","116.352098451","39.9395692094","40","0102"
"西城财政局站","01020022","0102080022","丰盛胡同 西城财政局门口西侧","116.368207347","39.9185511497","40","0102"
"华远街站","01020023","0102050023","华远街北师大附属中学国际部东门北侧","116.371140389","39.9110420345","50","0102"
"宣武门西大街甲91号站","01020024","0102040024","宣武门西大街甲91号楼前（新华社南门西侧)","116.369729127","39.8998158528","55","0102"
"宣武门西大街4号站","01020025","0102020025","宣武门西大街4号楼前（北京环宇科苑中医研究所）","116.371080129","39.899376173","40","0102"
"椿树园站","01020026","0102020026","永光路椿树园9号楼对面","116.376521101","39.8950160648","35","0102"
"成方街站","01020027","0102040027","金融大街与成方街交叉口以北","116.359386396","39.9088241471","50","0102"
"信达大厦站","01020028","0102040028","闹市口大街中国信达大厦北侧","116.363049155","39.9037198134","40","0102"
"北纬路站","01020029","0102020029","北纬路与西经路交叉口以东（西经路49号院5号楼）","116.390544835","39.8835096858","30","0102"
"永安路站","01020030","0102070030","中国邮政永安路支局对面西侧","116.386932055","39.8861411292","35","0102"
"地铁菜市口A站","01020031","0102010031","地铁菜市口A出口","116.374099327","39.8903828236","50","0102"
"翔达大厦站","01020032","0102040032","广安门内大街翔达大厦","116.368362943","39.8894651158","30","0102"
"中信城站","01020033","0102020033","菜市口大街甲2号院3号楼","116.374637659","39.8854208704","60","0102"
"开元名都站","01020034","0102040034","菜市口大街中国开元名都大酒店","116.374245389","39.8869222082","40","0102"
"地铁陶然亭A口站","01020035","0102010035","菜市口大街 地铁陶然亭A出口北侧","116.37400613","39.8791987157","60","0102"
"信恒大厦站","01020036","0102040036","广安门内大街信恒大厦","116.361648428","39.8892223183","35","0102"
"春风社区西门站","01020037","0102020037","牛街春风社区西门北侧","116.363763397","39.8848924495","30","0102"
"地铁宣武门站","01020038","0102010038","宣武门西大街地铁宣武门D2出口南侧","116.374175306","39.8984031997","40","0102"
"粉子胡同站","01020039","0102040039","西单北大街与粉子胡同交叉口以北","116.373603643","39.9181274789","25","0102"
"灵境胡同站","01020040","0102010040","西单北大街 地铁灵境胡同D出口","116.373679183","39.9150854327","25","0102"
"关帝庙站","01020041","0102060041","阜成门内大街关帝庙南门东侧","116.367632146","39.9240013959","40","0102"
"地铁阜成门B口站","01020042","0102010042","阜成门内大街地铁阜成门B出口","116.35715154","39.9239188508","30","0102"
"西兴盛胡同站","01020043","0102050043","太平桥大街与西兴盛胡同交叉口以北(北京八中体育馆南侧）","116.362987273","39.9096618501","40","0102"
"西城晶华站","01020044","0102070044","太平桥大街西城晶华西门南侧","116.364797009","39.9217625487","60","0102"
"虎坊路站","01020045","0102040045","虎坊路2-3号楼（钱旺涮肉前面）","116.385007182","39.8877261469","40","0102"
"儒福里50号站","01020046","0102020046","菜市口大街乐秀商城对面南侧","116.374752017","39.8799466483","45","0102"
"西四南大街53号站","01020047","0102040047","西四南大街53号楼前（巴黎春天对面）","116.37349775","39.9216860075","50","0102"
"南菜园街站","01020048","0102030048","南菜园街1号楼对面（西城区地税局第二税务所斜对面）","116.353903909","39.8753950186","45","0102"
"粉坊琉璃站","01020049","0102020049","南横东街与粉坊琉璃街交叉口西侧","116.381659999","39.8834017414","25","0102"
"长椿里1号站","01020050","0102020050","长椿里一号楼前（都佳美超市对面西侧）","116.362605662","39.8945570857","40","0102"
"宣武医院站","01020051","0102040051","长椿街宣武医院对面","116.363683304","39.8905074154","30","0102"
"广内大街18号站","01020052","0102020052","广安门内大街18号院1号楼","116.364937636","39.8891352046","40","0102"
"高梁桥站  ","01020053","0102040053","高梁桥路与北展北街交叉口西南角（凯德mall商厦西门对面）","116.351713957","39.9416929372","55","0102"
"双旗杆路站","01020054","0102010054","双旗杆东里甲18号对面","116.388216222","39.9640167534","30","0102"
"黄寺大街站","01020055","0102040055","黄寺大街 中国国际商品交易基地对面","116.383381801","39.9629608472","30","0102"
"新风南里站","01020056","0102020056","新风街 新风南里16号北侧","116.37785697","39.9615845723","25","0102"
"新康路东口站","01020057","0102020057","德胜门外大街与新康路交叉口西北侧","116.378045346","39.9582236332","30","0102"
"北京师范大学站","01020058","0102050058","北京师范大学对面","116.371193519","39.9598983616","20","0102"
"新街口外大街站","01020059","0102020059","新街口外大街6-7号楼前","116.37084173","39.963580434","30","0102"
"新康路西口站","01020060","0102020060","新街口外大街与新康路交叉口东北侧","116.371850314","39.9581450907","30","0102"
"新康路站","01020061","0102030061","新康街2-3号楼前","116.372049867","39.9578205985","30","0102"
"第二炮兵总医院站","01020062","0102030062","第二炮兵总医院中医门诊西侧","116.371576728","39.9559768099","25","0102"
"教场口街站","01020063","0102020063","林家胡同与教场口街交叉口西南侧","116.380841264","39.953445494","35","0102"
"六铺炕街站","01020064","0102020064","六铺炕二巷与六铺炕街交叉口东南侧","116.387780764","39.9535670673","30","0102"
"六铺炕二巷站","01020065","0102020065","六铺炕三区甲1号楼前","116.38721451","39.951479074","30","0102"
"六铺炕一巷站","01020066","0102020066","六铺炕二区1号楼对面","116.390387598","39.951415855","30","0102"
"安德馨居站","01020067","0102020067","安德路 安德馨居北门东侧","116.38721451","39.951479074","30","0102"
"德胜门东滨河路站","01020068","0102020068","德胜门西滨河路 冰窖口胡同8号院5号楼前","116.375374662","39.9497000989","30","0102"
"新街口七条站","01020069","0102020069","东新开胡同与新街口七条交叉口东北侧","116.370427676","39.9467615995","30","0102"
"新华百货站","01020070","0102040070","德胜门西大街与新街口北大街交叉口南侧","116.372081237","39.9476713689","35","0102"
"地铁新街口B口站","01020071","0102010071","地铁新街口B出口北侧","116.368885713","39.9412279233","30","0102"
"地铁新街口D口站","01020072","0102010072","地铁新街口D出口西侧","116.367227835","39.9404980196","45","0102"
"南草场街站","01020073","0102020073","南草场街 冠英园西区24号楼西侧","116.364165296","39.9382595824","35","0102"
"地铁车公庄H口站","01020074","0102010074","车公庄大街 地铁车公庄H口东侧","116.353727959","39.932166307","30","0102"
"地铁车公庄西站B口站","01020075","0102010075","地铁车公庄西站B出口西侧","116.344799905","39.9325950714","40","0102"
"榆树馆胡同站","01020076","0102020076","展览馆路与西直门外南路交叉口东南侧","116.344295513","39.9357570705","40","0102"
"展览馆路站","01020077","0102020077","展览馆路19号西侧","116.344206152","39.9306686988","40","0102"
"展览馆路南口站","01020078","0102030078","展览馆路与百万庄大街交叉口东侧","116.344381298","39.9282469318","25","0102"
"外文局站","01020079","0102020079","百万庄大街 中国外文局对面","116.337987613","39.9282097181","40","0102"
"百万庄大街站","01020080","0102020080","百万庄大街17号院西侧","116.348729565","39.9282619528","30","0102"
"粮科大厦","01020081","0102030081","国家粮食局科学研究院门前","116.350801953","39.9282363432","45","0102"
"北潞园站","01020082","0102020082","展览馆路 北潞园1号北侧","116.343747206","39.9266553492","30","0102"
"大红罗厂站","01020083","0102020083","大红罗厂街与大拐棒胡同交叉口北侧","116.375681579","39.9276820479","30","0102"
"景山公园南门站","01020084","0102060084","景山西街与景山前街交叉口东侧","116.394517498","39.9232749277","30","0102"
"南礼士路北口站","01020085","0102070085","南礼士路阜成门快速公交站对面","116.35301866","39.9224821433","25","0102"
"国润大厦站","01020086","0102030086","阜成门外大街 国润大厦西侧","116.350386417","39.9232219416","35","0102"
"南礼士路站","01020087","0102020087","南礼士路与月坛北街交叉口东北侧","116.353341829","39.9199709791","30","0102"
"科学技术馆站","01020088","0102020088","月坛北街5号楼前","116.351091599","39.9185112699","35","0102"
"月坛北小街站","01020089","0102020089","月坛北街9号楼前","116.346605946","39.9185000467","30","0102"
"月坛北街站","01020090","0102020090","三里河东路与月坛北街交叉口西北侧","116.344657353","39.9185275462","30","0102"
"月坛北街西口站","01020091","0102040091","月坛北街15号楼前","116.34240867","39.9185002935","30","0102"
"银岛饭店站","01020092","0102040092","月坛南街32号楼前","116.34039666","39.9139511402","30","0102"
"月坛南街站","01020093","0102030093","月坛南街与三里河东路交叉口西北侧","116.3448755","39.9150917743","25","0102"
"二七剧场站","01020094","0102040094","月坛南街与二七剧场路交叉口东侧","116.346512699","39.9138955553","25","0102"
"儿童医院站","01020095","0102030095","月坛南街与南礼士路交叉口东南侧","116.353121903","39.9136011017","30","0102"
"中央人民广播电台站","01020096","0102020096","西便门外大街与真武庙二条交叉口北侧","116.351522731","39.9053741665","30","0102"
"真武庙三里站","01020097","0102020097","真武庙路四条与白云路交叉口东北侧","116.342954102","39.903663654","35","0102"
"白云路站","01020098","0102020098","白云观街北里与白云路交叉口西南侧","116.342241919","39.9020779551","35","0102"
"红莲南路站","01020099","0102020099","红莲南路与莲花河东侧路交叉口东北侧","116.337731465","39.8773827919","35","0102"
"南礼士路南口站","01020100","0102020100","南礼士路与乐道巷交叉口东南侧","116.352753503","39.9099592736","25","0102"
"天宁寺南里北门站","01020101","0102020101","天宁寺南里社区北门对面","116.34433285","39.8923119258","30","0102"
"富卓商厦站","01020102","0102020102","宣外大街与西草场街交叉口西南侧","116.374734161","39.8926003126","30","0102"
"手帕口桥站","01020103","0102050103","广安门外大街与手帕口北街交叉口西侧","116.341916384","39.8901427247","45","0102"
"广外医院站","01020104","0102030104","广安门外大街 莲花河北侧","116.331877742","39.8897473921","30","0102"
"华联商厦站","01020105","0102040105","广外大街182号楼前","116.33728538","39.8896503728","45","0102"
"广外大街站","01020106","0102070106","广安门外大街4号楼前","116.345401025","39.8893580027","30","0102"
"广安门外南滨河路站","01020107","0102030107","椿树馆街与广安门南滨河路交叉口北侧","116.348427994","39.8856491528","30","0102"
"红居街站","01020108","0102020108","红居东街与红居街交叉口南侧","116.33965773","39.8863996718","30","0102"
"红莲北里站","01020109","0102020109","马连道南街红莲北里9-2号楼前","116.331533778","39.8846884805","25","0102"
"红莲中里站","01020110","0102020110","马连道南街与红莲路交叉口西南侧","116.333549891","39.8844842643","40","0102"
"新年华购物中心站","01020111","0102040111","马连道路与红莲南路交叉口东南侧","116.328525151","39.8770129831","25","0102"
"鸭子桥南里站","01020112","0102020112","鸭子桥南里5号楼东侧","116.348994724","39.8761928314","30","0102"
"槐柏树南里站","01020113","0102020113","槐柏树南里1号楼前","116.354814838","39.8960686557","30","0102"
"金色夏日酒店站","01020114","0102020114","槐柏树街南里11号对面","116.352941799","39.8947969759","45","0102"
"广义街站","01020115","0102020115","广义街4号楼前","116.356815223","39.8930177348","30","0102"
"北线阁街站","01020116","0102030116","广安门内大街与北线阁街交叉口西北侧","116.353109131","39.8899774994","30","0102"
"牛街路口西站","01020117","0102070117","长椿街与广安门内大街交叉口西侧","116.363075969","39.8896075232","30","0102"
"通河巷西口站","01020118","0102020118","广安门南街与通河巷交叉口东北侧","116.351001803","39.8805319867","30","0102"
"樱桃三条站","01020119","0102020119","白广路与樱桃三条交叉口东北侧","116.35933465","39.8801891175","30","0102"
"中国地图出版社站","01020120","0102030120","白广路与白纸坊西街交叉口东北侧","116.359306685","39.8783752546","35","0102"
"白纸坊西街站","01020121","0102040121","白纸坊西街16号北侧","116.358840992","39.877756303","30","0102"
"北京卫生学校站","01020122","0102040122","南横西街96号院1号楼前","116.36683081","39.8831560302","20","0102"
"双槐里小区站","01020123","0102020123","南横西街 北京市西城区城市管理监察大队对面","116.371291538","39.8831552918","30","0102"
"三里河一区站","01020124","0102020124","月坛北街与三里河东路交叉口西南侧","116.344701928","39.9176871719","30","0102"
"西城区第二文化馆站","01020125","0102060125","菜市口大街 西城区第二文化馆北侧","116.374699677","39.8744068393","40","0102"
"陶然亭公园北门站","01020126","0102060126","陶然亭公园北门西侧","116.381553933","39.878824425","40","0102"
"东经路站","01020127","0102020127","东经路98号西南侧","116.393250873","39.8819028168","30","0102"
"南新华路站","01020128","0102020128","珠市口西大街与南新华路交叉口东北侧","116.384896996","39.8904753947","30","0102"
"一商大厦站","01020129","0102040129","马连道路11楼前","116.326514493","39.882718642","35","0102"
"赵登禹路站","01020130","0102020130","赵登禹281号南侧","116.367339263","39.9296060086","20","0102"
"交通委路政局站","01020131","0102030131","广安门内大街北京市交通委员会路政局门前","116.35477794","39.8897500742","30","0102"
"西便门东里站","01020132","0102020132","西便门内大街 西便门东里8号西侧","116.352874108","39.8995213826","35","0102"
"新风街站","01020133","0102040133","新街口外大街8-4西侧天桥下","116.370974068","39.9620235833","20","0102"
"西绒线胡同站","01020134","0102020134","西绒线胡同 西长安街街道公共服务大厅对面","116.383827352","39.9043043962","30","0102"
"公交德胜门西站","01020135","0102070135","德胜门西大街 公交德胜门西东侧","116.377845427","39.9493469418","40","0102"
"丰盛胡同站","01020136","0102030136","丰盛胡同 丰盛胡同39号楼对面","116.368447911","39.9186748225","30","0102"
"音像资料馆大厦站","01020137","0102030137","真武庙路与真武庙二条交叉口东北侧","116.346401106","39.9053716569","30","0102"
"桦皮厂胡同站","01020138","0102030138","桦皮厂胡同与西内大街交叉口东北侧","116.358946944","39.9405097513","30","0102"
"地铁北海北站","01020139","0102010139","地安门西大街 地铁北海北站B口南侧","116.388225891","39.9334087128","30","0102"
"前门西大街站","01020140","0102020140","前门西大街 前门西大街6号楼前","116.38773386","39.900096589","40","0102"
"太平街站","01020141","0102020141","北纬路与太平街交叉口东南侧","116.387530319","39.8831756087","25","0102"
"全国总工会站","01020142","0102030142","复兴门外大街 真武庙路1号院内","116.346060589","39.9066240925","35","0102"
"白纸坊东街站","01020143","0102020143","白纸坊东街 白纸坊东街18号北侧","116.364948768","39.8781674936","30","0102"
"红莲南里站","01020144","0102020144","红莲路 红莲南里2号楼西侧","116.3343951","39.8808142333","30","0102"
"农机大厦站","01020145","0102020145","手帕口南街与广安门车站西街交叉口西北侧","116.341502412","39.8838588167","30","0102"
"马连道北里站","01020146","0102040146","广安路与马连道路交叉口西南侧","116.326345185","39.8895792818","30","0102"
"广华轩站","01020147","0102020147","手帕口西街 广华轩4号楼西侧","116.339545341","39.8920062241","25","0102"
"广安胡同站","01020148","0102020148","广安胡同与老墙根街交叉口西南侧","116.36808639","39.8930592663","30","0102"
"人社局站","01020150","0102030150","永定门西街 北京市人力资源与社会保障局院内","116.390743861","39.8724223671","50","0102"
"后海西沿站","01020151","0102060151","后海西沿路 金帆俱乐部西侧","116.380451965","39.9438853219","20","0102"
"后海东沿站","01020152","0102060152","后海东沿路 火神庙北侧","116.395407541","39.937426413","30","0102"
"地铁平安里站","01020153","0102010153","西四北大街 地铁平安里地铁A口南侧","116.372824833","39.9344335126","50","0102"
"景山后街站","01020154","0102070154","景山后街与地安门内大街交叉口西南侧","116.395557234","39.9283532716","40","0102"
"北海公园站","01020155","0102060155","景山前街与北长街交叉口西北侧","116.39039219","39.9226162188","20","0102"
"地铁西四站","01020156","0102010156","西四北大街与西四东大街交叉口东北侧","116.374085213","39.9241378562","20","0102"
"国家发改委站","01020157","0102030157","月坛南街 国家发改委门前东侧 ","116.338223081","39.9139569236","35","0102"
"财政部站","01020158","0102030158","三里河南六巷与三里河南横街交叉口西南侧","116.341728891","39.9110708647","30","0102"
"鸭子桥路站","01020159","0102020159","鸭子桥路 鸭子桥路1号院6号楼对面","116.346829163","39.8760879344","25","0102"
"地铁和平门A口站","01020160","0102010160","宣武门东大街 地铁和平门A口北侧","116.382812528","39.9002691814","50","0102"
"煤市街站","01020161","0102040161","煤市街与廊坊头条交叉口东北侧","116.394425221","39.8974354279","35","0102"
"宣武门西大街西口站","01020162","0102020162","宣武门西大街 宣武门西大街22号楼前","116.359525751","39.8989845982","35","0102"
"天宁寺桥站","01020163","0102020163","广安门北滨河路与天宁寺东里交叉口东北侧","116.348103409","39.8964459364","35","0102"
"天宁寺东里站","01020164","0102020164","天宁寺东里2号楼前","116.348209161","39.8937802378","35","0102"
"地铁菜市口F口站","01020165","0102010165","骡马市大街 地铁菜市口F口南侧","116.375250574","39.8895312693","50","0102"
"水利部站","01020166","0102030166","白广路二条 水利局北门西侧","116.357608434","39.8861703444","50","0102"
"新农街站","01020167","0102020167","南纬路与新农街交叉口西南侧","116.396777064","39.8808306851","30","0102"
"官园胡同站","01020168","0102020168","平安里西大街 官园胡同1号楼前","116.362964809","39.9322137432","30","0102"
"地铁宣武门B口站","01020169","0102010169","宣武门东大街与宣内大街交叉口东南侧","116.374890312","39.9000931758","20","0102"
"灵境胡同西口站","01020170","0102040170","灵境胡同与西单北大街交叉口东北侧","116.374677043","39.9147636514","25","0102"
"公安大学站","01020171","0102040171","莲花池东路 华天大厦前","116.336152859","39.8975854513","25","0102"
"展览路医院站","01020172","0102020172","西外南路 展览路医院南侧","116.348804699","39.9370569706","25","0102"
"华堂大厦站","01020173","0102040173","右安门内大街 华堂商场西侧","116.364305359","39.8720321665","35","0102"
"核桃园西街站","01020174","0102020174","广安门北街与核桃园西街交叉口西南侧","116.350419128","39.8920376202","30","0102"
"南营房中街站","01020175","0102020175","南营房中街与月坛北小街交叉口西南侧","116.346228724","39.9216188988","40","0102"
"北京建筑大学站","01020176","0102050176","展览馆路 北京建筑大学东门北侧","116.343683674","39.9358464325","40","0102"
"如意里站","01020177","0102020177","北草厂胡同 如意里9号楼西侧","116.363859942","39.9431669422","30","0102"
"四根柏小学站","01020178","","赵登禹路 四根柏小学对面","116.368138295","39.9360292664","20","0102"
"地铁鼓楼大街站","01020179","0102010179","德胜门东大街 地铁鼓楼大街站E口东侧","116.393690664","39.9483710628","40","0102"
"塔园村站","01050001","5001","塔园外交公寓东门口前","116.450179707","39.9439108977","35","0105"
"幸福三村站","01050002","5002","新东路与东直门外大街交汇处","116.450710244","39.940223232","23","0105"
"三里屯酒吧街北口站","01050003","5003","卡塔尔大使馆签证处西门对面","116.455343839","39.9405780516","20","0105"
"东外大街东口站","01050004","5005","农展桥西南角","116.461382702","39.9407948697","29","0105"
"地铁农展馆站A口站","01050005","5004","地铁10号线农展馆站A口","116.462280724","39.9418060245","20","0105"
"安贞西里2号楼","01050006","8888","中轴路安贞西里小区西门","116.394844667","39.972438941","28","0105"
"三里屯路站","01050007","5006","三里屯路三点但商场对面","116.455453245","39.9368840456","30","0105"
"工体西路","01050008","5007","工体西路与工体北路交叉口","116.444135566","39.9334858224","45","0105"
"工体北门","01050009","5008","工人体育场北门对面","116.446138659","39.9339675302","20","0105"
"幸福村中路站","01050010","5009","幸福村中路锦绣运小区对面","116.44730535","39.9364249879","50","0105"
"幸福三村南站","01050011","5010","新东路三里屯小区35号西侧","116.450671903","39.9364174171","27","0105"
"安贞西里二区5号楼","01050012","8888","中轴路与健安东路交叉口","116.395005914","39.9752284431","32","0105"
"安贞西里一区2号楼","01050013","8888","健安东路安贞西里小区北口","116.398660848","39.975168086","28","0105"
"安贞西里一区29号楼","01050014","8888","安贞路与健安东路交叉口","116.402343337","39.9752154602","19","0105"
"地铁安贞门站","01050015","8888","地铁十号线安贞门站","116.407150172","39.9766252834","24","0105"
"安贞桥北","01050016","8888","安定路辅路金瓯大厦前","116.407282276","39.9731409768","28","0105"
"BRT安贞桥北站","01050017","8888","安定路辅路","116.407217323","39.9707431817","21","0105"
"地铁团结湖站A口北站","01050018","5011","团结湖地铁A口北","116.460858704","39.9350192362","20","0105"
"团结湖A","01050019","5012","团结湖地铁A口南","116.461061005","39.9339501094","20","0105"
"地铁团结湖站B口站","01050020","5013","团结湖地铁B口北","116.46209041","39.9347194082","20","0105"
"小关街51号楼","01050021","8888","安定路与北土城东路交叉口","116.407987304","39.9780758428","25","0105"
"惠新苑5号楼","01050022","8888","惠新西街惠新苑5号楼前天桥下","116.416705369","39.9880367605","24","0105"
"朝阳医院站","01050023","5016","朝阳医院东门对面","116.455167365","39.9262260194","20","0105"
"工体东南站","01050024","5017","工体东路工体南路交叉","116.450135246","39.9271839473","40","0105"
"小关北里214号楼","01050025","8888","安苑路小关北里214号楼","116.415235227","39.9832671149","23","0105"
"惠新里小区西门","01050026","8888","惠新西街","116.417703533","39.9805407917","24","0105"
"惠新西里2号院93号楼","01050027","8888","惠新西街辅路惠新西里2号院93号楼前","116.417244553","39.979059363","28","0105"
"工体西路南口站","01050028","5018","工体西路光彩国际公寓前","116.444273951","39.927069691","24","0105"
"工体南门站","01050029","5015","工体南门西南角","116.4462144","39.9267834595","30","0105"
"地铁朝阳门站A口站","01050030","5019","朝阳门地铁A口外","116.436754548","39.9247296122","40","0105"
"惠新里239号楼","01050031","8888","惠新西街与北土城东路交叉口","116.417740261","39.9787246307","24","0105"
"蓝岛西区站","01050032","5020","朝外大街蓝岛西区前","116.448727697","39.922824075","20","0105"
"神路街站","01050033","5021","神路街与朝外南街交叉口","116.4439239","39.9215103923","25","0105"
"南营房胡同西口站","01050034","5022","朝外市场街老番街南侧","116.441245745","39.9204794369","20","0105"
"日坛北路西口站","01050035","5023","日坛北路雅宝城对面","116.441351662","39.9176755499","20","0105"
"日坛北门站","01050036","5024","日坛北门路侧","116.443697963","39.9176826294","20","0105"
"日坛东路北口站","01050037","5025","朝阳区财政局对面路侧","116.447011518","39.9176586426","24","0105"
"地铁呼家楼站D口","01050038","8888","地铁呼家楼站H口","116.458868002","39.9231719011","24","0105"
"地铁亮马桥D口","01050039","5115","地铁亮马桥站D口","116.461224313","39.9486662606","39","0105"
"地铁亮马桥A口北站","01050040","5114","金茂斯汀酒店对面","116.461420182","39.9501315731","34","0105"
"新源街VOLVO","01050041","5112","新源里南路与新源街交界","116.455258694","39.9484599057","30","0105"
"新源街路口","01050042","5111","新东路与新源南路交界（新源东里12号楼前）","116.449720279","39.9478617466","25","0105"
"新东路路口","01050043","5110","新东路与东直门外斜街交界（新源西里中街2号楼后）","116.445973474","39.9499086054","30","0105"
"地铁金台夕照D口站","01050044","5026","地铁10号线金台夕照D出口外","116.461424037","39.915381856","30","0105"
"香河园路","01050045","5108","左家庄东街与香河园路交叉口","116.448223669","39.9543449718","33","0105"
"永安里路口北站","01050046","5014","光华西里小区西门","116.45072246","39.9116973899","37","0105"
"地铁惠新西街北口站","01050047","8888","北土城东路与惠新西街交叉口","116.41689251","39.9769117387","24","0105"
"北四环东路104号楼","01050048","8888","北四环东路华堂大厦东侧","116.422124373","39.9886120461","24","0105"
"惠新里20号楼对面","01050049","8888","安苑路惠新里20号楼对面","116.421365716","39.9834927136","25","0105"
"新源街北口站","01050050","5054","新源街北口新源街35号楼前","116.453834327","39.9517737346","39","0105"
"三元西桥东南","01050051","5106","三环与静安西街交叉口（三元西桥东南角）","116.447993231","39.9617401164","35","0105"
"国际展览中心","01050052","5105","静安西街展览中心对面","116.445577218","39.9613741003","35","0105"
"天虹百货","01050053","5104","左家庄东街与静安西街交叉口","116.443527848","39.9590147415","25","0105"
"华都饭店站","01050054","5056","京城大厦西侧","116.452685122","39.947830674","39","0105"
"豪成大厦","01050055","5102","左家庄中街豪城大厦前，左家庄南里11号楼对面","116.44204811","39.9549507766","24","0105"
"左家庄中街","01050056","5101","左家庄中街与左家庄西街交界（左家庄南里16号楼前）","116.439934369","39.9548142843","38","0105"
"左家庄北里8号楼","01050057","5100","左家庄西街路上左家庄北里8号楼","116.439806954","39.9569855638","39","0105"
"左家庄街道办事处","01050058","5113","左家庄街道办事处北300米","116.448684154","39.9509447762","20","0105"
"燕丰商场","01050059","5043","柳芳北街与左家庄西街交叉口","116.439608568","39.9594805767","30","0105"
"三元西桥","01050060","5098","三环与静安西街交界（国展中心后面）","116.446126368","39.9629183721","35","0105"
"西坝河中里","01050061","5097","三环与西坝河南路交界（西坝河中里1号楼后）","116.442135169","39.9656146393","50","0105"
"小庄路口北","01050062","5095","呼家楼南里25号楼前","116.469466418","39.9169665319","40","0105"
"金台西路南口","01050063","5096","朝阳路与金台路交界","116.469639025","39.9187873941","50","0105"
"东直门外斜街","01050064","5109","左家庄西街与东直门外斜街交界（新源西里7号楼后）","116.444596497","39.9486923895","29","0105"
"呼家楼地铁C口东","01050065","5094","呼家楼北街11号楼前","116.465062156","39.923114747","35","0105"
"甜水园西里","01050066","5090","甜水园北里45#楼前","116.481860471","39.9281514017","29","0105"
"三元东桥西站","01050067","5055","牛王庙7号楼前","116.457950943","39.9529090438","29","0105"
"甜水园东街南口","01050068","5089","朝阳北路与甜水园东街交叉路口","116.484126529","39.923143518","40","0105"
"朝阳公园南门","01050069","5088","朝阳公园南路与马道口路交叉路口东南角","116.482293751","39.9335101161","20","0105"
"甜水园路北口","01050070","5087","朝阳公园南路与甜水园路交叉路口西南角","116.477615554","39.9335006505","50","0105"
"朝阳法院","01050071","5086","朝阳公园南路朝阳法院西侧","116.474708947","39.933502354","34","0105"
"三元桥东北角站","01050072","5028","东三环北路南银大厦前","116.457701183","39.9560025557","50","0105"
"三元东桥站","01050073","5029","三环辅路与霄云路交叉口","116.459686628","39.954733242","50","0105"
"三元庵站","01050074","5030","霄云路与东方东路交叉口","116.463009964","39.957064832","42","0105"
"麦子店西街站","01050075","5033","霄云路与天泽路交叉口鹏润大厦对面","116.465737101","39.9599312655","27","0105"
"天泽路站","01050076","5031","安家楼路与天泽路交叉口东北角","116.468344459","39.9543787699","49","0105"
"世纪剧场","01050077","5084","亮马桥路世纪剧场北","116.471987993","39.9523074855","23","0105"
"258大中电器","01050078","5032","农展馆北路258电器大世界门前","116.472012017","39.9449453275","25","0105"
"枣营南里社区","01050079","8888","枣营南里社区健身园","116.473657925","39.9442277322","29","0105"
"姚家园路","01050080","5061","姚家园天客隆","116.465036371","39.9287933168","19","0105"
"水碓子中街南口","01050081","5063","摩码大厦","116.472579262","39.9233375262","45","0105"
"团结湖公园东门","01050082","5062","团结湖公园东门","116.466961672","39.925715129","40","0105"
"垂杨柳中街","01050083","8888","垂杨柳中里10号楼前","116.455801948","39.8883716646","38","0105"
"苹果社区西门","01050084","8888","百子湾南二路苹果园社区西门左侧","116.467197054","39.897366113","40","0105"
"麦乐迪KTV对面","01050085","5081","东三环（麦乐迪KVT对面）","116.461931131","39.8984617326","43","0105"
"大中电器","01050086","5080","双井桥西南角大中电器前过街天桥下","116.459010485","39.8931546372","40","0105"
"广泉小区","01050087","5079","广渠门外大街与广和路交叉口","116.450512454","39.893068703","42","0105"
"惠林路南口东","01050088","5078","广渠门外大街与垂杨柳中街交叉口","116.456474876","39.8938206745","20","0105"
"地铁双井A口东","01050089","5077","双井地铁A口","116.460761978","39.8936807884","24","0105"
"惠新东桥南","01050090","8888","惠新东街1号楼前","116.424022308","39.9872727025","19","0105"
"珠江帝景站","01050091","5060","广渠路双井家乐福超市西南角","116.47425501","39.8935251201","30","0105"
"惠新东街北","01050092","8888","惠新东街富盛大厦前","116.424125059","39.9852886226","23","0105"
"惠新怡园","01050093","8888","惠新东街辅路","116.424273067","39.9823825129","22","0105"
"对外经贸大学","01050094","8888","惠新东街辅路紫光发展大厦对面","116.424572814","39.9810299749","30","0105"
"垂杨柳医院站","01050095","5051","垂杨柳南街垂杨柳东里17号楼前","116.459862825","39.8878534369","32","0105"
"光明桥东站","01050096","5052","劲松嘉园广和南里二条16号院","116.45025947","39.8847742374","30","0105"
"光明桥东北角站","01050097","5053","劲松路光和南里1号楼前","116.447945271","39.8847835264","30","0105"
"北土城路","01050098","8888","惠新东街与北土城东路交叉口西北","116.424203979","39.9773581102","25","0105"
"北京西藏中学","01050099","8888","四环与高原街口交叉口","116.430565429","39.9888112682","23","0105"
"地铁劲松站D口北","01050100","5074","劲松路与东三环交叉口，劲松桥西南角","116.46031025","39.8842404477","40","0105"
"潘家园东里社区东门站","01050101","5059","潘家园路与华威路交叉口东北角","116.456144909","39.8771736939","24","0105"
"地铁劲松站A口","01050102","5064","地铁劲松站A口","116.460386563","39.8846935163","28","0105"
"劲松中街北口站","01050103","5045","劲松中街北口","116.456352009","39.8867502272","24","0105"
"劲松四区北楼","01050104","5072","劲松路劲松四区北口以东5米","116.454229497","39.8843704226","36","0105"
"劲松中街站","01050105","5046","劲松中街劲松四区东门","116.456152417","39.884143917","25","0105"
"华威北里北口站","01050106","5047","东三环辅路与劲松南路交叉口","116.458947766","39.8816025885","25","0105"
"劲松南站","01050107","5048","劲松南路与劲松六区东门","116.446699157","39.8817029007","34","0105"
"劲松南路西口","01050108","5073","劲松工商银行前","116.446699157","39.8817029007","29","0105"
"潘家园东路北口","01050109","5071","劲松路与广和东街交界西侧","116.449708955","39.8844301561","37","0105"
"劲松桥东","01050110","5075","南磨房路西段（华韩整形医院前）","116.465556482","39.8842281935","20","0105"
"武圣路北口","01050111","5076","南磨房路与武圣北路交界","116.467649362","39.8832187989","19","0105"
"平乐园站","01050112","5049","南磨房路与西大望路交叉口","116.475109223","39.8841935633","33","0105"
"劲松桥南站","01050113","5050","东三环与南磨房路交叉口","116.461585517","39.8839550682","28","0105"
"华威西里北门","01050114","5067","潘家园路与华威路交叉口（建设银行前）","116.452664745","39.8761656068","30","0105"
"潘家园路西口站","01050115","5034","东二环南路潘家园26号楼西侧","116.450474592","39.8763357089","34","0105"
"潘家园路西口","01050116","5043","东二环南路潘家园26号楼西侧","116.445963829","39.8763263212","25","0105"
"潘家园街道","01050117","8888","武圣路与双龙路交界","116.467640369","39.8727004638","32","0105"
"松榆东里社区西口站","01050118","5035","武圣东路朝阳管委路口","116.472466885","39.8742209784","19","0105"
"武圣东路社区北口站","01050119","5036","松榆北路与武圣东路交叉口","116.472196251","39.8758431088","40","0105"
"松榆东里社区东口站","01050120","5037","松榆南路与武圣东里交叉口","116.472132298","39.8719575518","19","0105"
"松榆北路东口","01050121","5063","松榆北路与西大望路交叉口","116.476847432","39.8762105804","40","0105"
"松榆东里东口南","01050122","5057","松榆北路与西大望路交叉口南","116.477149335","39.8739050892","30","0105"
"松榆东里19号楼","01050123","5065","松榆北路与双龙路交叉口","116.477144043","39.8719910685","39","0105"
"朝阳公园西门","01050124","5038","朝阳公园路","116.474676769","39.937395396","34","0105"
"松榆里社区西口站","01050125","5039","松榆北路西口松榆里25号楼北侧","116.468817168","39.8760276142","38","0105"
"武圣西里5号楼","01050126","5040","武圣路武圣东里社区对面","116.467642074","39.8788750523","28","0105"
"武圣东里社区西门站","01050127","5058","武圣路武圣东里社区53号楼前","116.46782182","39.8770324928","29","0105"
"世纪嘉园","01050128","8888","小关世纪嘉园正门北侧","116.40989784","39.9825997909","26","0105"
"建业苑小区","01050129","5069","东三环与松榆北路交叉口（潘家园桥东南角）","116.463860917","39.8761065869","40","0105"
"潘家园旧货市场","01050130","8888","潘家园路旧货市场北门路北岗亭西侧","116.459569386","39.8763281745","28","0105"
"华威路北口站","01050131","5041","劲松南路与华威路交叉口","116.456213708","39.8814095766","29","0105"
"潘家园东路","01050132","5061","潘家园东路福满多超市前","116.450946643","39.8799521843","20","0105"
"肿瘤医院西门站","01050133","5042","潘家园南里社区西门北侧","116.444929815","39.8745001247","25","0105"
"潘家园路西口站","01050134","5043","东二环南路潘家园26号楼西侧","116.446451416","39.8780484029","38","0105"
"潘家园桥东北角","01050135","5044","东三环农光南里10号楼前","116.46153356","39.8784001391","30","0105"
"三元桥西北","01050136","8888","三元桥西北静安东里3号楼前","116.450990471","39.9597482691","27","0105"
"高原街7号院2号楼","01050137","8888","高原街7号院2号楼","116.427526939","39.9860955889","23","0105"
"惠新东街乙8号","01050138","8888","惠新东街乙8号楼前","116.427352681","39.9836086219","31","0105"
"胜古家园","01050139","8888","东三环金丰华家常菜门口","116.409655087","39.9692904791","25","0105"
"胜古北里7号楼","01050140","8888","惠新西街胜古北里7号楼前","116.417390201","39.9737725725","23","0105"
"和平西桥","01050141","8888","三环和平西桥西北侧","116.417625757","39.9703348956","28","0105"
"胜古东里2号楼","01050142","8888","北三环与樱花园东街交叉口","116.423504999","39.9695588109","18","0105"
"中日友好医院","01050143","8888","中日友好医院3号门","116.424781992","39.9750537924","19","0105"
"樱花东街11号楼","01050144","8888","樱花园东街","116.42466875","39.9710507838","25","0105"
"樱花园中街3号楼","01050145","8888","北三环与樱花园东街交叉口","116.425313061","39.9696046308","27","0105"
"地铁和平西桥站","01050146","8888","五号线地铁和平西桥站东南口南侧","116.418316268","39.9680337887","24","0105"
"和平街八区","01050147","8888","青年沟路和平街八区18号楼前","116.409115444","39.9620611229","26","0105"
"和平里十一区7号楼","01050148","8888","和平里东街和平里10区7号楼","116.424752671","39.9671573802","25","0105"
"和平街十区站","01050149","8888","和平里东街和青年沟路交叉口西北角","116.424676873","39.9622275753","23","0105"
"和平里十四区1号楼","01050150","8888","和平里北街和和平里东街交叉口","116.425326484","39.9596509477","24","0105"
"和平里北街东口","01050151","8888","和平里北街和平里十四区13号楼前","116.429330618","39.9595958092","23","0105"
"和平街十三区20号楼","01050152","8888","青年沟路和平街十三区20号楼","116.431260819","39.9622574701","26","0105"
"地铁柳芳站","01050153","8888","东土城路8号林达大厦路西北侧","116.432302311","39.9561885009","24","0105"
"西坝河西里19号楼","01050154","8888","香河园七圣路","116.435835405","39.9676333408","25","0105"
"西坝河中里38号楼","01050155","8888","香河园七圣路西坝河中里大门右侧","116.438225049","39.962777817","19","0105"
"七圣路新华书店","01050156","8888","香河园七圣路新华书店","116.439592965","39.961173777","20","0105"
"朝外街道办事处","01050157","8888","三环与西坝河南路交界（西坝河中里1号楼后）","116.449649589","39.9204737469","27","0105"
"地铁三元桥C2出口","01050158","8888","十号线地铁三元桥C2出口","116.459042429","39.9611597663","20","0105"
"朝阳区投资服务大厅","01050159","8888","霄云里南街朝阳区投资服务大厅门前","116.463486951","39.9616517368","20","0105"
"嘉里大通中心北","01050160","8888","霄云路与天泽路交叉口东北角","116.466133906","39.9598980208","14","0105"
"工体北路中","01050161","8888","工体北路与新东路东北角","116.450739265","39.9342781744","25","0105"
"工体东路东","01050162","8888","工体东路工体南路交叉","116.452226418","39.9335078727","28","0105"
"三里屯路南口","01050163","8888","三路屯路与工体北路交叉口东北角","116.45584948","39.9338879104","20","0105"
"工体北路外交公寓","01050164","8888","工体北路外交公寓天桥下","116.458299209","39.9339185244","25","0105"
"朝阳公园路南口","01050165","8888","朝阳公寓南路与朝阳公园路交叉口西北角","116.471637622","39.933932064","21","0105"
"南三里屯路","01050166","8888","南三里屯路社区东门","116.455306552","39.9292527749","29","0105"
"八十中","01050167","8888","白家庄路八十中对面","116.459161141","39.9285775752","24","0105"
"地铁东大桥站B口","01050168","8888","地铁六号线东大桥站B口","116.453189297","39.923549062","21","0105"
"地铁呼家楼站","01050169","8888","地铁十号线呼家楼东南口（朝阳剧场门前）","116.462080302","39.9223640348","30","0105"
"地铁金台路站东南口","01050170","8888","地铁六号线金台路东南出口","116.478462723","39.9227407222","30","0105"
"金台夕照B","01050171","8888","地铁十号线金台夕照B口","116.462023675","39.9173212526","25","0105"
"潘家园社区服务大厅","01050172","8888","松榆西里68号楼北侧","116.461797285","39.8732051884","38","0105"
"朝阳路","01050173","8888","朝阳路柴家湾5号楼前","116.480432252","39.9153777585","20","0105"
"方庄体育公园北门站","01060001","01","方庄体育公园北门西侧","116.428298735","39.8683446221","30","0106"
"方庄体育公园西门站","01060002","02","方庄体育公园西门南侧","116.426539838","39.8672076009","30","0106"
"顶秀金石家园站","01060003","03","顶秀金石家园东门","116.430910982","39.8372836334","30","0106"
"芳古园二区西门站","01060004","04","芳古园二区西门南门","116.426486004","39.8689755719","30","0106"
"芳群路北口站","01060005","05","芳群路北口华储宾馆对面","116.426276295","39.8707057795","25","0106"
"方安苑站","01060006","06","方庄南路北口路西","116.438588583","39.8577277995","29","0106"
"方庄环岛站","01060007","07","方庄环岛东北角家乐福前","116.431949106","39.8660718075","50","0106"
"芳城园一区站","01060008","08","芳城园一区四号门对面","116.434351846","39.8684652721","30","0106"
"地铁蒲黄榆A口站","01060009","09","地铁蒲黄榆A口北侧","116.421329955","39.8668148812","33","0106"
"丰台体坛医院站","01060010","10","芳城路丰台体坛医院对面","116.437486085","39.8684610833","30","0106"
"芳城东里站","01060011","11","方庄路芳城东里西门便道北侧","116.439316818","39.8672875361","30","0106"
"横七条站","01060012","12","横七条11号楼2号院对面","116.42376623","39.8533453604","34","0106"
"东方医院东门站","01060013","13","东方医院东门北侧","116.433749342","39.8643256923","30","0106"
"蒲芳路西口站","01060014","14","蒲芳路西口工行前东侧","116.426107807","39.8655778946","30","0106"
"芳群园二区西门站","01060015","15","芳群园二区西门南侧","116.426737358","39.8639064206","24","0106"
"方庄办事处站","01060016","16","方庄办事处东侧链家地产前","116.427666346","39.8617745819","30","0106"
"东铁营桥联通站","01060017","17","东铁营桥东北角联通门口","116.434802174","39.8572426331","19","0106"
"紫芳园六区站","01060018","0106040018","南三环辅路 紫芳园六区南门西侧","116.443164618","39.8592490355","40","0106"
"方庄社区服务中心站","01060019","19","方庄社区服务中心传达室北侧","116.425277348","39.8639001474","14","0106"
"刘家窑路站","01060020","20","刘家窑路社区卫生服务中心门前西侧","116.415687325","39.8621292615","30","0106"
"东铁营一中站","01060021","21","刘家窑路东铁营一中对面","116.419580892","39.8620991169","35","0106"
"十八中站","01060022","22","群星路芳星园三区3号楼前","116.435884056","39.8622839201","29","0106"
"顺八条站","01060023","23","顺八条丰台第一幼儿园对面","116.425278086","39.8497159855","35","0106"
"政馨园一区站","01060024","24","顺八条东口南侧政馨园一区北门","116.433330091","39.8495080603","23","0106"
"横一条北口站","01060025","25","横一条北口东侧南方庄5号楼西","116.432436604","39.8575088615","50","0106"
"政馨园三区站","01060026","26","政馨园三区门前南侧","116.430759678","39.844608517","30","0106"
"公交草桥站","01060027","27","南三环草桥公交站西侧","116.358688492","39.8535365088","30","0106"
"翠庭园站","01060028","28","方庄南路南口路西翠庭园7号前","116.438940665","39.8474512054","24","0106"
"四方景园三区站","01060029","29","方庄南路四方景园三区2号楼西侧","116.43893769","39.8560508945","30","0106"
"贾家花园站","01060030","30","光彩路北京汽车光彩体育馆对面","116.414539211","39.8537488913","25","0106"
"地铁宋家庄D1口站","01060031","31","地铁宋家庄D1口北侧","116.42820201","39.8443125771","40","0106"
"顺四条站","01060032","32","顺四条实验动物资源中心","116.43108637","39.8540818657","21","0106"
"地铁蒲黄榆B口站","01060033","33","地体蒲黄榆B口外","116.423117837","39.865702114","34","0106"
"蒲黄榆路站","01060034","34","蒲黄榆路与刘家窑路交叉口西南角","116.421644746","39.8614166145","29","0106"
"天创公馆站","01060035","35","芳群路南口天创公馆前","116.428095698","39.8595467704","25","0106"
"西罗园路站","01060036","0106020036","西罗园路京仁医院对面","116.388054733","39.8608479946","30","0106"
"中国评剧院站","01060037","0106020037","西罗园路中国评剧院","116.3918668","39.8606879322","25","0106"
"西罗园体育场站","01060038","0106020038","西罗园路 西罗园体育场东门","116.394190629","39.8594408126","25","0106"
"角门北路东口站","01060039","0106070039","角门北路东口路南","116.386263153","39.8497250615","24","0106"
"角门北路站","01060040","0106040040","角门北路美廉美超市对面","116.380855989","39.8505404374","29","0106"
"国家食品研究院站","01060041","0106070041","马家堡东路国家食品研究院前","116.38701291","39.8488684858","25","0106"
"角门东里19号站","01060042","0106020042","马家堡东路角门东里19号楼","116.386329639","39.8461314075","32","0106"
"马家堡东路94号站","01060043","0106040043","马家堡东路94号楼前","116.386887913","39.8471914647","37","0106"
"山西大厦站","01060044","0106020044","马家堡路山西大厦北侧","116.383468384","39.8587001187","20","0106"
"洋桥北里站","01060045","0106020045","西罗园北路街道办事大厅西侧","116.383791702","39.8639838635","20","0106"
"北京南站路东口站","01060046","0106070046","北京南站路东口路南","116.386321455","39.8655191645","30","0106"
"佑安医院站","01060047","0106080047","玉林西路佑安医院","116.35428638","39.8657732507","33","0106"
"玉林小区站","01060048","0106020048","玉林西路玉林小区北门南侧","116.354657717","39.8632588416","29","0106"
"地铁刘家窑A口站","01060049","0106040049","地铁5号线刘家窑站A口东侧","116.42149637","39.8578887281","35","0106"
"华商科技大厦站","01060050","0106040050","右安门外大街华商科技大厦","116.36453365","39.8591272505","45","0106"
"开阳里三区站","01060051","0106020051","开阳里三街开阳里三区北门西侧（北京瑞隅公司对面)","116.365548393","39.8650165673","30","0106"
"开阳里六区站","01060052","0106020052","开阳里三街开阳里六区北门","116.368706635","39.8656868268","29","0106"
"开阳里八区站","01060053","0106020053","开阳里三街东口开阳里八区东北角","116.373660347","39.8654692702","35","0106"
"右安门外大街东站","01060054","0106040054","南二环与右安门外大街交叉口天客隆超市","116.365430031","39.8693484259","30","0106"
"马家堡东路55号站","01060055","0106040055","马家堡东路55号楼前","116.386308204","39.8550740429","40","0106"
"顺四条西站","01060056","0106020056","顺四条37号院1号楼前","116.427251231","39.8543333953","29","0106"
"东庄7号楼站","01060057","0106020057","南站幸福路东庄7号楼前","116.379235569","39.8680488087","40","0106"
"右安门外大街站","01060058","0106040058","右安门外大街与南二环交叉口工商银行","116.364973459","39.867335531","39","0106"
"光彩路站","01060059","0106040059","光彩路贾家花园3号院19号楼","116.414747028","39.8503214235","35","0106"
"角门北里站","01060060","0106020060","角门北路速八酒店前西侧","116.37366879","39.8505121668","34","0106"
"晨光小区站","01060061","0106020061","晨光小区东门对面南侧","116.376399108","39.8493776283","35","0106"
"马家堡中路站","01060062","0106020062","马家堡西里东门北侧","116.376581757","39.8523096194","30","0106"
"玺萌丽苑站","01060063","0106020063","嘉园路红旗中医院门前","116.364784111","39.8506020314","35","0106"
"镇国寺北街6号院站","01060064","0106020064","镇国寺北街6号院门口南侧","116.362286695","39.8448517366","34","0106"
"玺萌公馆站","01060065","0106020065","嘉园路玺萌公馆东门南侧","116.364819271","39.8420192924","34","0106"
"城南嘉园站","01060066","0106020066","公益西街城南嘉园（BHG华联商厦对面)","116.366637989","39.8351444982","35","0106"
"丰台区纳税局站","01060067","0106040067","嘉园路丰台区纳税局","116.3652958","39.8393068833","33","0106"
"马家堡街道办事处站","01060068","0106020068","嘉园路马家堡街道办事处","116.365292261","39.8428856724","28","0106"
"角门西地铁站","01060069","0106010069","嘉和路嘉园三里甲一号楼（天外天烤鸭店对面）","116.369379305","39.8460351562","30","0106"
"城一区二号门站","01060070","0106020070","芳城路城一区二号门西侧","116.431485665","39.8685202015","28","0106"
"星河苑站","01060071","0106020071","马家堡西路星河苑前","116.370697862","39.8384388782","25","0106"
"马家堡西路站","01060072","0106040072","马家堡西路26号院前过街桥下","116.371222294","39.8423219754","34","0106"
"龙珠公寓站","01060073","0106020073","芳古路龙珠公寓西门南侧","116.430590241","39.8702017301","35","0106"
"成寿寺中街站","01060074","0106020074","成寿寺中街四方景园5号楼前","116.441956891","39.8541585974","30","0106"
"科技园26号院站","01060075","0106040075","科技园区外环西路26号院广场","116.281035403","39.8236503631","35","0106"
"富丰桥站","01060076","0106040076","南四环西路与富丰路交叉口西南角","116.286753017","39.835963245","49","0106"
"科技园十六区站","01060077","0106040077","丰台科技园十六区小广场西北角","116.290868843","39.8268290537","28","0106"
"科技园十六区南站","01060078","0106040078","丰台科技园十六区12号楼西侧","116.292418018","39.8259284025","48","0106"
"科技园五区站","01060079","0106040079","丰台科技园五区1号楼南侧","116.286681542","39.8251589578","25","0106"
"科技园三区站","01060080","0106040080","丰台科技园三区12号楼前","116.284135095","39.8248653235","29","0106"
"科技园十二区站","01060081","0106040081","丰台科技园十二区31号楼前","116.285093342","39.8206312938","29","0106"
"科技园十八区站","01060082","0106040082","丰台科技园十八区12号楼前","116.292216252","39.8205003487","40","0106"
"方南家园站","01060083","0106040083","横七条 方南家园南侧","116.424322202","39.8516965119","36","0106"
"科技园十区站","01060084","0106040084","丰台科技园十区9号楼前","116.279703696","39.8198958209","25","0106"
"科技园六号院站","01060085","0106040085","丰台科技园6号院23号楼","116.281451011","39.8254403778","60","0106"
"华冠商场站","01060086","0106040086","枫竹苑北路华冠商场前","116.377808114","39.8359003986","39","0106"
"医科大附中站","01060087","0106020087","首都医科大学附属中学南门对面","116.366052068","39.8586395806","19","0106"
"宝汇苑站","01060088","0106020088","南三环路宝汇苑南门西侧","116.390832714","39.8573048899","33","0106"
"立业大厦站","01060089","0106040089","马家堡东路立业大厦前","116.386766008","39.8524043094","30","0106"
"紫芳园站","01060090","0106020090","紫芳园一区南门东侧","116.443026126","39.864326369","34","0106"
"科技园八区西门站","01060091","0106040091","丰台科技园八区西门站","116.28449605","39.8226922483","44","0106"
"铁营医院站","01060092","0106040092","横七条铁营医院东门北侧","116.423868382","39.8565414167","29","0106"
"丰台二小站","01060093","0106050093","向阳街 丰台第二小学西门南侧","116.291683354","39.8415737556","20","0106"
"新华街西口站","01060094","0106080094","新华街 新华街社区卫生站前","116.286944667","39.8419864591","30","0106"
"新华街六里站","01060095","0106020095","新华街 新华街六区北门东侧","116.290455059","39.8430740332","30","0106"
"地铁丰台南路A口站","01060096","0106010096","丰台南路 地铁丰台南路A2出口西侧","116.295444673","39.8420022864","30","0106"
"新华街二里站","01060097","0106020097","新华街二里北侧","116.293734823","39.8442819557","25","0106"
"丰益花园站","01060098","0106020098","丰管路 丰益花园南侧","116.308089551","39.858066951","35","0106"
"地铁泥洼站","01060099","0106040099","前泥洼路与丰管路交叉口东南侧","116.304126142","39.857677803","30","0106"
"泥洼路北口站","01060100","0106030100","泥洼路 交通支队对面","116.300143899","39.8650788956","30","0106"
"文体路站","01060101","0106030101","文体路 区政府南100M路西","116.286303892","39.8578681109","30","0106"
"近园路站","01060102","0106030102","近园路 东方丽人医院前","116.284302437","39.8616056426","30","0106"
"丰华苑站","01060103","0106020103","近园路与庄维路交叉口东北侧","116.288784129","39.8616677376","35","0106"
"东安街头条东口站","01060104","0106040104","东安街头条东口顺天府超市前","116.282214641","39.8493281235","30","0106"
"丰台医院站","01060105","0106080105","西安街 丰台医院东门北侧","116.279017899","39.8484928379","30","0106"
"地铁东大街A口站","01060106","0106010106","地铁东大街A出口南侧","116.293555114","39.8554826862","30","0106"
"正阳大街站","01060107","0106040107","正阳大街 苏宁电器前","116.284940197","39.8474886672","25","0106"
"永善里小区站","01060108","0106020108","文体路 永善里小区东门北侧","116.286171177","39.849585378","20","0106"
"丰台南路站","01060109","0106020109","丰台南路 丰台南路116号院4号楼前","116.28961064","39.8410859969","30","0106"
"韩庄子站","01060110","0106020110","恒富街 韩庄子三里2号楼","116.291829842","39.838532295","30","0106"
"丰台生态主题公园站","01060111","0106060111","科兴路 丰台科技园生态主题公园西门","116.293680947","39.8393009272","30","0106"
"彩虹街区站","01060112","0106020112","丰台南路 彩虹街区北门","116.302242034","39.841333866","30","0106"
"鸿业兴园站","01060113","0106020113","丰台南路 鸿业兴园二区2号楼","116.305619011","39.8402540689","30","0106"
"丰台第7中学站","01060114","0106030114","丰台南路 新村街道办事处前","116.307847099","39.8393876891","40","0106"
"首经贸西门站","01060115","0106010115","樊羊路 首经贸西区东门南侧","116.312671246","39.8400369528","30","0106"
"首经贸北门站","01060116","0106010116","首经贸北门东侧","116.316296829","39.8444032779","30","0106"
"地铁首经贸站","01060117","0106010117","芳菲路 地铁首经贸站万年花城东门","116.319592757","39.8446044999","35","0106"
"汇丰家园站","01060118","0106020118","樊羊路 汇丰家园对面","116.313475604","39.8490427598","30","0106"
"纪家庙路北口站","01060119","0106040119","纪家庙路 天兰天尾货批发市场北侧","116.326095983","39.8490088334","25","0106"
"京石宾馆站","01060120","0106040120","莲宝路 京石宾馆西侧","116.307328356","39.8900450007","30","0106"
"六里桥南路站","01060121","0106030121","六里桥南路 首发大厦西门南侧","116.307815872","39.8791654937","30","0106"
"丰体北门站","01060122","0106030122","丰体北路 丰台体育中心北门东侧","116.278945516","39.8682843308","30","0106"
"望园路站","01060123","0106030123","望园路 中国邮政储蓄银行门前","116.287018188","39.8663544332","25","0106"
"地铁六里桥A口站","01060124","0106010124","广安路 地铁六里桥站A出口东侧","116.302066417","39.8805071509","30","0106"
"六里桥西贝站","01060125","0106020125","京石高速辅路 西贝餐厅南侧","116.305456439","39.8826914463","30","0106"
"保利·百合花园站","01060126","0106020126","西局西路 保利·百合花园北门东侧","116.30509729","39.8781922916","30","0106"
"天使食府站","01060127","0106070127","广安路 天使食府西南侧","116.318710084","39.8884800102","30","0106"
"芳城园二区东门站","01060128","0106020128","芳星路 芳城园二区东门北侧","116.433599607","39.8673387757","20","0106"
"蒲黄榆二里站","01060129","0106020129","桃杨路 蒲黄榆二里前","116.418127993","39.8697163744","20","0106"
"戏曲学校站","01060130","0106050130","马家堡中路 戏曲学校西门","116.376976667","39.855596018","25","0106"
"地铁刘家窑C口站","01060131","0106010131","榴乡路 地铁刘家窑C口西侧","116.42221105","39.8566299347","40","0106"
"丰台房屋经管所站","01060132","0106030132","文体路 丰台房屋经管所对面","116.286132843","39.8525303464","30","0106"
"游泳场北路站","01060133","0106020133","游泳场北路 游泳场北路11号院前","116.290386866","39.8552139196","30","0106"
"造甲村南里站","01060134","0106070134","丰台南路353公交站南侧","116.299186112","39.8421740807","30","0106"
"地铁七里庄站G口站","01060135","0106010135","东大街 七里庄地铁站G出口南侧","116.294422969","39.8652977897","25","0106"
"北大地商场站","01060136","0106020136","西四环南路 北大地商场北侧农商银行前","116.283276622","39.8576467111","25","0106"
"北大地一里站","01060137","0106020137","西四环 北大地一里东门北侧","116.282951235","39.8541225607","30","0106"
"莲怡园二区站","01060138","0106020138","莲宝中路 莲怡园二区东门","116.299116737","39.8852114844","25","0106"
"世纪金色家园站","01060139","0106030139","右安门东滨河路 世纪金色家园北门","116.371947297","39.869749862","40","0106"
"日月天地站","01060140","0106020140","左安门西滨河路 日月天地前","116.43327742","39.8706928854","30","0106"
"307医院站","01060141","0106080141","东大街 307医院西门","116.294271461","39.8624611807","30","0106"
"万丰路华堂商场站","01060142","0106040142","万丰路 华堂商场北侧","116.294221381","39.8682681291","40","0106"
"国润大厦站","01060143","0106030143","西四环南路辅路 国润大厦西侧","116.281608319","39.8697697556","30","0106"
"小井润园二区西门站","01060144","0106020144","望园东路 小井润园二区西门","116.288917476","39.8732553783","40","0106"
"大井东里站","01060145","0106020145","大井东街 大井东里小区南门","116.275159717","39.8694232781","25","0106"
"轨道公司站","01060146","0106020146","南四环 公交恋日嘉园站北侧 ","116.362736876","39.8317707126","40","0106"
"地铁西局站","01060147","0106040147","地铁西局A口西侧","116.302599745","39.8663513359","30","0106"
"地铁丰台南路A1口站","01060148","","丰台南路 地铁丰台南路A1口东侧","116.295936534","39.8418909069","30","0106"
"看丹路8号院站","01060149","","看丹路 看丹路8号院前","116.282214786","39.8396682471","35","0106"
"看丹路西口站","01060150","","看丹路西口北侧","116.279516708","39.8394004207","30","0106"
"莲怡园东路站","01060151","0106020151","莲怡园东路 六里桥9号院前","116.302836333","39.8829156458","25","0106"
"大井南里站","01060152","0106010152","大井路 大井南里东侧","116.27367433","39.8660153335","25","0106"
"莲花池南里站","01060153","0106020153","莲花池南路 莲花池南里北侧","116.315897731","39.8887222333","30","0106"
"向阳街站","01060154","0106040154","向阳街 广联超市前","116.290310999","39.8446471721","30","0106"
"丰台南路西口站","01060155","0106070155","丰台南路西口路南","116.287237339","39.8406418202","30","0106"
"玉林东里站","01060156","06156","右安门外大街与玉林南路交叉口西北角","116.363877116","39.8627200534","49","0106"
"莲花池南路站","01060157","0106030157","莲花池南路 丰台园林局东侧","116.312623076","39.8889607037","30","0106"
"七里庄路站","01060158","0106020158","七里庄路 七里庄甲18号院对面","116.291920192","39.8592225038","30","0106"
"建国街站","01060159","0106020159","建国街 建国街二里北门","116.292023408","39.8464637923","35","0106"
"宛平城东门站","01060160","06160","宛平城东门北侧","116.230037993","39.8520828238","18","0106"
"宛平城西门南站","01060161","06161","宛平城西门南侧","116.222523018","39.8504840291","10","0106"
"宛平城西门北站","01060162","06162","宛平城西门北侧","116.222338501","39.8509103533","10","0106"
"宛平城城南街站","01060163","06163","宛平城城南街西口南侧","116.223571991","39.8494601738","30","0106"
"公交抗战雕塑园站","01060164","06164","卢沟桥南路 抗战雕塑园公交站西侧","116.230054004","39.8486217189","52","0106"
"首发大厦站","01060165","0106030165","西三环南路 北京市纪检委前","116.310860647","39.8790833584","30","0106"
"丰台永旺站","01060166","0106040166","丰葆路 永旺梦乐城北侧","116.290428637","39.8179986081","30","0106"
"草桥东路1号站","01060167","0106070167","草桥东路 草桥公交站北侧","116.35954928","39.8519077534","20","0106"
"草桥欣园小区站","01060168","0106020168","草桥东路 欣园小区十八号院西门南侧","116.359335067","39.8442045633","30","0106"
"地铁草桥B口站","01060169","0106010169","镇国寺北街 草桥地铁站B口东侧","116.352795137","39.8459545843","45","0106"
"草桥小学站","01060170","0106050170","草桥欣园四区南门东侧","116.351220846","39.8423338021","30","0106"
"春园西门站","01060171","0106020171","小屯路 春园西门北侧","116.253189297","39.8910113088","20","0106"
"博龙佳园西门站","01060172","0106020172","小屯路 博龙家园西门北侧","116.253251145","39.8947924613","30","0106"
"芳园南门站","01060173","0106020173","大成路 芳园居委会东侧","116.259638986","39.8896448192","30","0106"
"青塔西里6号院站","01060174","0106020174","青塔西里6号院南门东侧","116.265856332","39.8939436324","30","0106"
"长安新城站","01060175","0106040175","青塔西路 大成集团长安新城商业中心东侧","116.264423199","39.8885222725","35","0106"
"梅市口路站","01060176","0106020176","青塔西路与梅市口路交叉口东北侧","116.265091955","39.8809646659","30","0106"
"红木大观园站","01060177","0106040177","岳各庄北路 岳各庄北路红木大观园南侧","116.274389264","39.8836338278","30","0106"
"美域家园北区南门站","01060178","0106040178","小屯路与大屯路交叉口西北侧","116.251910855","39.8754838334","30","0106"
"兴隆灯饰站","01060179","0106040179","广安路 兴隆灯饰批发市场北侧","116.28012207","39.8734177988","30","0106"
"双林苑南门站","01060180","0106020180","双林南路 双林苑南门西侧","116.254445767","39.8722822633","30","0106"
"看丹南路站","01060181","0106020181","看丹南路与看杨路交叉口西南过街天桥下","116.271608863","39.8345679132","35","0106"
"公益西桥东站","01060182","0106030182","南四环中路 公益西桥东侧路桥公司东侧过街天桥下","116.374361702","39.8317432674","15","0106"
"嘉金大厦站","01060183","0106070183","南站幸福路 嘉金大厦南侧","116.373757587","39.8674704077","30","0106"
"卢沟桥文化中心站","01060185","0106030185","西四环南路与大井东街交叉口西南侧","116.280119716","39.8705866809","20","0106"
"定安路站","01060186","0106020186","定安路 工商银行门前","116.413961961","39.8596945049","30","0106"
"东大街西里站","01060187","0106020187","东大街 东大街西里东侧","116.293915358","39.8643316045","30","0106"
"小屯路北口站","01060188","0106020188","小屯路5号院7号楼南侧","116.252598447","39.8930075589","25","0106"
"青塔五街站","01060189","0106020189","大成路与青塔五街交口西南侧西20M","116.255970794","39.8894288177","30","0106"
"丰体时代大厦站","01060190","0106040190","丰体南路 丰体时代大厦南侧","116.269479128","39.8656882445","40","0106"
"双城公寓站","01060191","0106040191","南三环中路 木樨园桥东国美电器前","116.406284223","39.8573647588","35","0106"
"地铁七里庄B口站","01060192","0106070192","万丰路 七里庄地铁站B口南侧","116.294625708","39.8675832147","20","0106"
"美域家园南区南门站","01060193","0106020193","兴源路 美域家园19号楼南侧","116.250191523","39.8722447401","30","0106"
"美域家园南区北门站","01060194","0106020194","大屯路 美域家园南区北门西侧","116.249662852","39.8754135581","30","0106"
"珠江峰景站","01060195","0106020195","青塔西路 青塔西路58号院18号楼西侧","116.264764266","39.8784704715","30","0106"
"西府景园站","01060196","0106020196","梅市口路 西府景园南门西侧 ","116.269928551","39.8812440463","35","0106"
"丰台党校站","01060197","0106050197","程庄路 丰台区委党校东门","116.267311076","39.850027009","30","0106"
"地铁郭庄子A口站","01060198","0106010198","小屯路 地铁郭庄子站A口北侧","116.252564519","39.8659589185","35","0106"
"地铁郭庄子B口站","01060199","0106010199","小屯路 地铁郭庄子站B口北侧","116.253323173","39.8660003097","35","0106"
"沙子口路南口站","01060200","0106020200","沙子口路 贾家花园南区东侧","116.420476823","39.850004917","20","0106"
"望园东里南门站","01060202","0106020202","地铁七里庄站E口北侧望园东里南门外","116.292595077","39.8670610049","25","0106"
"望园北路站","01060203","0106020203","望园路与望园北路交叉口东北角","116.286804415","39.8684769827","25","0106"
"六里桥南路北口站","01060204","0106030204","六里桥南路 北京政务中心西北侧","116.306538375","39.8820587665","50","0106"
"建邦枫景东门站","01060205","0106020205","双林东路 建邦枫景东门北侧","116.257046172","39.867910183","30","0106"
"莲怡园北路站","01060206","0106020206","莲怡园北路 橙色年代南门对面","116.295513652","39.8866639809","30","0106"
"青海大厦站","01060207","0106030207","青海大厦南侧","116.322632224","39.863805548","40","0106"
"地铁马家堡A口站","01060208","0106010208","马家堡西路 马家堡地铁A口南侧","116.370947932","39.853148446","45","0106"
"芳园北门站","01060209","0106020209","小瓦窑东里南路 芳园北门西侧","116.258432433","39.8931974816","30","0106"
"五里店站","01060210","0106030210","丰台区管委养路队门口南侧","116.255962823","39.8632820949","35","0106"
"五里店北里站","01060211","0106020211","卢沟桥路 五里店北里小区内","116.260190868","39.8630041959","30","0106"
"五里店北里北门站","01060212","0106020212","五里店北里小区北门","116.259396201","39.8641246612","30","0106"
"郭庄家园站","01060213","0106030213","地铁郭庄子站C口东侧村委会门前","116.262564967","39.868935031","30","0106"
"靛厂路站","01060214","0106030214","靛厂路 丰台区建委北门东侧","116.294026492","39.8895007696","25","0106"
"宛平城P3停车场","01069999","0106049999","宛平城P3停车场内","116.225175296","39.8472800432","30","0106"
"政达路站","01070001","00000","政达路与银河东街交叉口西北角银河东街路西区政府东侧","116.223840189","39.905821071","29","0107"
"地铁八宝山B口站","01070002","00000","地铁八宝山东北口","116.236029508","39.907628396","49","0107"
"地铁八角游乐园A口站","01070003","00000","地铁八角游乐园东北口","116.213707617","39.9076969556","20","0107"
"地铁古城B口站","01070004","00000","地铁古城东北口","116.190994057","39.9075646153","50","0107"
"古城公园站","01070005","00000","古城公园西侧古城南路45号楼对面","116.19320124","39.9110298596","25","0107"
"八角南路站","01070006","00000","八角南路社区对面","116.196327122","39.9110403971","30","0107"
"八角南路东口站","01070007","00000","八角南路东口路北","116.20583004","39.910468268","30","0107"
"八角北路社区站","01070008","00000","八角路路北八角北路社区南门西侧","116.195904879","39.9138417655","29","0107"
"八角北路站","01070009","00000","八角北路杨庄中学门前东侧","116.195911478","39.9177407377","30","0107"
"八角路东口站","01070010","00000","八角路东口路北","116.205045945","39.9135612092","30","0107"
"融景城站","01070011","00000","景阳东街南口","116.206739594","39.8929876543","40","0107"
"古城街道办站","01070012","00000","古城路路北古城街道办对面","116.191344151","39.9152650696","28","0107"
"古城北路西口站","01070013","00000","古城北路西口路北","116.188176862","39.9179325383","44","0107"
"七星园站","01070014","00000","翠园西街七星园小区门口对面","116.21494892","39.8999789487","25","0107"
"大中电器站","01070015","00000","鲁谷路路南鲁谷东街与鲁谷路交叉口东南角","116.237094894","39.9036892612","30","0107"
"CRD银座站","01070016","00000","鲁谷大街与鲁谷路交叉口东北角鲁谷大街路东","116.229235438","39.9045102587","29","0107"
"八角北路11号院站","01070017","00000","八角北路路南八角北路11号院南门对面","116.202866679","39.9171983936","35","0107"
"杨庄东街站","01070018","00000","杨庄东街路西管委门前北侧","116.19787404","39.9219701121","20","0107"
"八角西街站","01070019","00000","八角西街与八角路交叉口东北角物美超市门前","116.198947067","39.9151456548","34","0107"
"永乐小区西门站","01070020","00000","鲁谷大街路东永乐小区西门前南侧","116.229646518","39.9002572049","30","0107"
"信安大厦东站","01070021","00000","石景山路路南信安大厦东200米","116.196729409","39.9072862725","24","0107"
"老山东小街站","01070022","00000","老山东小街南口路西","116.226960123","39.9083907626","35","0107"
"远洋学校站","01070023","00000","鲁谷东街路东远洋分校门前天桥下","116.235939075","39.8992987422","30","0107"
"新岚大厦居委会","01070024","00000","新岚大厦北路与新岚大厦西路交叉口","116.217723021","39.9013167577","24","0107"
"鲁谷街道服务中心站","01070025","00000","鲁谷南路与芳园西街交叉口东南角","116.223958604","39.8989082712","29","0107"
"依翠园站","01070026","00000","鲁谷南路路南依翠园14号楼南侧六合园小区北门东侧","116.218199482","39.9000632086","29","0107"
"鲁谷74号院站","01070027","00000","鲁谷路与雕塑园南街交叉口东北角鲁谷74号院门前西侧","116.243842116","39.9040232359","30","0107"
"半月科普园站","01070028","00000","鲁谷南路与银河南街交叉口半月科普园北门","116.222040989","39.9012847597","40","0107"
"玉泉西里站","01070029","00000","鲁谷村路南玉泉西里二区21号楼前","116.240156762","39.9006171012","30","0107"
"地铁八角游乐园B口站","01070030","00000","地铁八角游乐园东南口","116.212322273","39.9072418811","50","0107"
"永乐小区东门站","01070031","00000","鲁谷东街路西永乐小区东门北侧","116.242864529","39.9052353409","20","0107"
"光大银行站","01070032","00000","银河东街与鲁谷路交叉口","116.224195921","39.9039960713","22","0107"
"高井路东口站","01070033","","高井路东口路南","116.142389983","39.9404802808","30","0107"
"六千寺小区站","01070034","","高井路社区服务站前","116.137414591","39.9370322193","25","0107"
"高井路西口站","01070035","","高井路西口路南","116.132757131","39.9355307417","30","0107"
"第二小学站","01070036","","金顶北路 第二小学南门东侧","116.166190726","39.9299413876","25","0107"
"模式口南里南门站","01070037","","金顶北路与石门路交叉口东北侧 模式口南里南门西侧","116.159535643","39.9299001964","39","0107"
"八大处公园","01070038","","八大处公园门口对面","116.188574851","39.9539997456","30","0107"
"金顶五区北门站","01070039","","金顶路  金顶街五区北门西侧","116.166404973","39.9261735226","30","0107"
"金顶街三区北门站","01070040","","金顶路  金顶街三区北门东侧","116.171104104","39.926214955","25","0107"
"首钢电信南门站","01070041","","金顶路与金顶东街交叉口西北侧 首钢电信南门东侧","116.173449395","39.9266134981","25","0107"
"地铁苹果园站","01070042","","苹果园路 苹果园地铁对面","116.177209585","39.9274337622","35","0107"
"苹果园路东口站","01070043","","苹果园路与苹果园大街交叉口西北侧 苹果园四区3号对面","116.18480341","39.929365921","24","0107"
"海特花园西门站","01070044","","苹果园大街 海特花园西门北侧","116.183543705","39.9332267953","30","0107"
"实兴西街站","01070045","","实兴西街与双园路交叉口向北50米路西侧 中国电子科学研究院东门南侧","116.187386496","39.9361189927","30","0107"
"京汉旭城家园站","01070046","","重兴园路 京汉旭成家园北门西侧","116.229996363","39.8926994773","30","0107"
"双园路天山南门站","01070047","","双园路 北京天山新材料技术有限公司南区南门西侧","116.189381846","39.9364844509","25","0107"
"中园路天山北门站","01070048","","中园路 北京天山新材料技术有限公司南区北门西侧","116.189716137","39.9381053948","25","0107"
"石景山烟草局站","01070049","","古城西路 石景山区烟草局西侧路北","116.172092184","39.9145344015","20","0107"
"石景山科技园站","01070050","","实兴大街与双园路交叉口东南角","116.191368276","39.9366348988","30","0107"
"海特花园北门站","01070051","","西井路与实兴东街交叉口东南侧 海特花园北门西侧","116.188779213","39.9344615802","30","0107"
"杨庄东街北口站","01070052","","苹果园南路与杨庄东街交叉口向西50米路北侧 苹果园街道办事处东侧","116.19489945","39.9300741502","20","0107"
"宏开花园站","01070053","","实兴西街与西井路交叉口东北侧","116.185918071","39.934436604","25","0107"
"西山枫林站","01070054","","香山南路西山枫林小区西北门东侧","116.204540189","39.9440722801","35","0107"
"杨庄大街北口站","01070055","","杨庄大街与苹果园南路交叉口东南角","116.197529739","39.9304868599","20","0107"
"石景山当代商城南门站","01070056","","阜石路当代商城南门","116.196002097","39.9249763494","30","0107"
"奈伦熙府东门站","01070057","","杨庄东街北口向南100米路西","116.197667925","39.9293861933","20","0107"
"首钢园区站","01070058","","石景山路西口首钢园区内","116.169117534","39.9067948723","30","0107"
"曦景长安站","01070059","","古城大街 曦景长安小区北门西侧","116.185814975","39.9090946089","30","0107"
"古城南里1号楼站","01070060","","古城南里甲1号 石景山公安分局北门东侧","116.187017446","39.9057662958","25","0107"
"古城南里北口站","01070061","","古城南里北口路西侧 麦当劳门前","116.19189655","39.9066858731","30","0107"
"石景山区汽车检测厂站","01070062","","鲁谷路与翠园西街交叉口向西50米路北侧 国家电网西侧","116.213831881","39.9040104923","25","0107"
"燕保.京原家园站","01070063","","景阳东街燕保.京原家园西门路对面","116.205579486","39.8982663165","30","0107"
"融景城西站","01070064","","景阳大街北口路西侧","116.203300874","39.896197403","30","0107"
"重聚园北门站","01070065","","重聚路 重聚园小区北门路对面","116.226985882","39.8956192667","25","0107"
"茂华大厦站","01070066","","时代花园南路东口路北 茂华大厦南门西侧","116.20587882","39.9188108503","30","0107"
"地铁玉泉路站","01070067","","玉泉路与石景山路交叉口西南角","116.252474301","39.9071677408","40","0107"
"中科院研究生院站","01070068","","玉泉路与石景山路交叉口向北200米路西侧 玉泉路乙19号院东门北侧","116.252165321","39.9105083732","25","0107"
"玉泉路小学站","01070069","","玉泉西街北辛安交通队门口路北","116.245251916","39.9122763572","25","0107"
"体育场南街南口站","01070070","","体育场南街5号院美廉超市门前","116.202969681","39.8994457755","35","0107"
"西山枫林四区站","01070071","0107020071","八大处路军区南门","116.199175063","39.9474388304","25","0107"
"八大处后勤部1站","01070072","","八大处军区后勤部机关办公区西侧停车场","116.149653839","39.9496397708","30","0107"
"八大处后勤部2站","01070073","","八大处军区后勤部东营门北侧100M停车场","116.144681517","39.942840083","20","0107"
"后厂村站","01080001","0108030001","后厂村路  华控大厦北侧","116.30109449","40.055601179","25","0108"
"联想研究院站","01080002","0108030002","上地西路 联想研究院西门北侧","116.29798574","40.0533577913","30","0108"
"中关村软件信息园站","01080003","0108030003","上地西路 中关村软件园信息中心1号门南侧","116.298043631","40.0521227104","25","0108"
"中关村软件广场站","01080004","0108030004","上地西路 中关村软件广场东侧","116.298710319","40.0497857662","25","0108"
"上地九街站","01080005","0108040005","上地九街  百度大厦对面","116.302247538","40.0526625567","35","0108"
"地铁西二旗站","01080006","0108010006","上地东路 西二旗地铁站西侧","116.305461204","40.0532274352","35","0108"
"西二旗桥站","01080007","0108070007","西二旗大街 西二旗桥下","116.306621287","40.0507703758","25","0108"
"上地国际创业园站","01080008","0108030008","信息路 上地创业园西侧","116.305103311","40.0461560328","25","0108"
"联想创业路站","01080009","0108030009","创业路与上地五街交叉口东北侧","116.309521397","40.0419548261","40","0108"
"致远大厦站","01080010","0108030010","上地西路 致远大厦西侧","116.303749208","40.0418438016","20","0108"
"软件园南站","01080011","0108030011","东北旺路 公交软件园南站","116.299293086","40.0431683412","30","0108"
"东北旺路站","01080012","0108030012","公交东北旺路站","116.29464874","40.0431516088","25","0108"
"蓝海中心站","01080013","0108030013","东北旺南路29号蓝海中心","116.292491915","40.0414267828","20","0108"
"东北旺南路东口站","01080014","0108030014","东北旺南路 上地办公中心前","116.295506471","40.041961575","30","0108"
"海淀区党校站","01080015","0108030015","东北旺路  海淀区党校东侧","116.296150758","40.0426883368","30","0108"
"时代集团站","01080016","0108030016","上地西路 时代集团西侧","116.305784106","40.0383622047","30","0108"
"金隅嘉华站","01080017","0108030017","上地西路 金隅嘉华大厦西侧","116.306723819","40.0360166665","25","0108"
"马连洼北路东口站","01080018","0108030018","公交马连洼北路东口站（北大未名集团门口）","116.304035284","40.0344844223","20","0108"
"上地三街站","01080019","0108030019","上地三街 中黎科技园南侧","116.314107144","40.0373157657","30","0108"
"信息大厦站","01080020","0108030020","上地三街 信息大厦北侧","116.311986893","40.0365001419","35","0108"
"颂芳园8号站","01080021","0108030021","信息路 上地西里颂芳园8号楼东侧","116.311823216","40.0327292702","30","0108"
"上地佳园站","01080022","0108030022","上地东二路 上地佳园小区东侧","116.320114095","40.0320788662","50","0108"
"地铁上地站","01080023","0108010023","上地东二路 上地地铁站北侧","116.319627519","40.0330213514","60","0108"
"上地西路华联超市站","01080024","0108040024","上地西路 华联超市门前","116.312021139","40.0293389732","40","0108"
"上地东里二区站","01080025","0108020025","上地南路 上地东里二区12号楼南侧","116.315767138","40.0295953468","20","0108"
"上地南路6号站","01080026","0108020026","上地南路 上地南路6号院1号楼北侧","116.318030938","40.0298382793","40","0108"
"硅谷亮城东门站","01080027","0108030027","信息路 中国邮政储蓄银行东侧","116.313255546","40.0273028436","30","0108"
"北京体育大学站","01080028","0108050028","信息路 北京体育大学西门北侧","116.313993666","40.0238580981","25","0108"
"渔儿沟站","01110001","0111020001","政通路 渔儿沟南门东侧","116.136556204","39.7477566604","30","0111"
"鑫豪大厦站","01110002","0111030002","政通路 鑫豪大厦北侧","116.139203275","39.7475466836","30","0111"
"政通路站","01110003","0111030003","政通路 房山区政府对面","116.143744527","39.7475027258","25","0111"
"房山区气象局站","01110004","0111030004","政通路 房山区气象局对面","116.136222756","39.7449435595","30","0111"
"昊天假日酒店站","01110005","0111070005","京周路？昊天假日酒店门口西侧","116.141466426","39.7428338505","35","0111"
"西潞园站","01110006","0111020006","西潞园社区卫生服务站前","116.13286944","39.7349353559","20","0111"
"良乡社区站","01110007","0111020007","体育场路 良乡社区南区北门","116.146832525","39.7414451355","25","0111"
"体育场路东口站","01110008","0111080008","体育场路 电业医院南门西侧","116.150654652","39.7417802655","30","0111"
"拱辰大街站","01110009","0111040009","拱辰大街 华冠生活超市对面","116.142226102","39.7407429073","25","0111"
"良乡影剧院站","01110010","0111020010","拱辰大街 良乡影剧院对面","116.142149985","39.7382374745","30","0111"
"良乡质监局站","01110011","0111040011","拱辰大街？良乡质监局东门南侧","116.142188009","39.735276578","35","0111"
"盛川大厦站","01110012","0111040012","良坨路与京周路交叉口东南侧","116.136183968","39.7388151115","30","0111"
"北潞园家园站","01110013","0111020013","北潞园社区居委会前","116.128157","39.7406503476","30","0111"
"北潞春家园站","01110014","0111020014","北潞春家园物业前","116.126458876","39.7381712978","25","0111"
"616公交总站站","01110015","0111070015"," 北潞春家园南门 616公交总站","116.128819792","39.7358893461","30","0111"
" 京周路站","01110016","0111070016","京周路？北潞园小区南门西侧","116.131142698","39.7366100812","25","0111"
"西潞北大街站","01110017","0111040017","西潞北大街 美廉美超市门前","116.135887789","39.7361787871","30","0111"
"北关西路站","01110018","0111040018"," 北关西路与西潞北大街交叉口东南侧  ","116.136240358","39.7354308879","25","0111"
"拱辰星园站 ","01110019","0111020019","罗府街 拱辰星园东门南侧 ","116.138748884","39.7337692571","30","0111"
"良乡中路站","01110020","0111040020","西潞北大街与良乡中路交叉口东北侧","116.136772683","39.7311399456","30","0111"
"昊天广场站","01110021","0111040021","拱辰大街 昊天广场东侧","116.141882527","39.733786447","35","0111"
"昊天万福站 ","01110022","0111030022","良乡中路 昊天万福南侧","116.143355824","39.7311100188","25","0111"
"罗府家园站","01110023","0111020023","拱辰南大街 良辰百货东侧","116.141823453","39.7285808407","30","0111"
"良乡中学站","01110024","0111050024","南关东路 良乡中学对面东侧","116.144452056","39.7263735901","30","0111"
"月华小区站","01110025","0111020025","良乡西路 月华小区南门东侧","116.126323983","39.7311984853","20","0111"
" 嘉瑞通小区站","01110026","0111020026","拱辰南大街 嘉瑞通2号东侧","116.141947934","39.7254580251","30","0111"
"行宫园站","01110027","0111020027","政通路 行宫园小区南门西侧","116.146889115","39.7478088928","30","0111"
"天龙家具城站","01110028","0111030028","西潞南大街 天龙家具城前","116.136239963","39.7250890094","30","0111"
"房山中医院站","01110029","0111040029"," 西潞南大街 房山区中医医院南侧","116.135594649","39.7289238938","30","0111"
"地铁苏庄站","01110030","0111010030","苏庄大街 共创大厦对面","116.12393125","39.723924853","35","0111"
"苏庄三里站","01110031","0111020031","苏庄大街与苏庄中路交叉口西南侧","116.123341441","39.726404119","25","0111"
"苏庄中路站","01110032","0111020032"," 苏庄西街与苏庄中路交叉口东南侧","116.120261038","39.7264749221","25","0111"
"苏庄西区站","01110033","0111020033","京周路 苏庄西区东侧？","116.119828703","39.7298136573","25","0111"
"佳世苑站","01110034","0111020034","翠柳大街 佳世苑南区西侧","116.122520412","39.7205030758","30","0111"
"首发物流站 ","01110035","0111030035","长虹西路 首发物流西侧","116.115528645","39.723112316","30","0111"
"京良路站","01110036","0111060036","京良路 长阳镇政府南门东侧","116.21740513","39.7650751156","30","0111"
"地铁稻田站","01110037","0111010037","独义三路 稻田地铁A口西侧","116.216969927","39.7946939917","40","0111"
"西潞南大街南口站","01110038","0111030038","西潞南大街 房山发改委前","116.135953108","39.7252668925","30","0111"
"瑞雪春堂东门站","01110039","0111020039","良官公路 瑞雪春堂小区东门","116.149614342","39.7200066718","30","0111"
"西部回迁小区站","01110040","0111020040","荷花园北路 西部回迁小区北门西侧","116.152406738","39.7205522003","30","0111"
"昊蓝温泉家园北门站","01110041","0111020041","多宝路 昊蓝温泉家园北门东侧","116.157776985","39.7377118581","30","0111"
"昊天嘉园南门站","01110042","0111020042","黄良路 昊天嘉园南门东侧","116.160172466","39.7311588524","25","0111"
"苏庄中路东口站","01110043","0111050043","苏庄中路 速8酒店对面","116.127668406","39.726423929","30","0111"
"良乡西路站","01110044","0111030044","良乡西路 邮政储蓄银行对面","116.130981854","39.7309674987","30","0111"
"良乡东路西口站","01110045","0111020045","良乡东路与昊天大街交叉口东北侧","116.148126953","39.7311020285","30","0111"
"玉竹园西门站","01110046","0111020046","揽秀北大街 玉竹园温泉小区西门南侧","116.157644887","39.7250686219","30","0111"
"地铁良乡大学城西A站","01110047","0111010047","黄良路 地铁良乡大学城西站A1口西侧","116.155256599","39.7234634532","30","0111"
"地铁良乡大学城西B站","01110048","0111010048","黄良路 地铁良乡大学城西站B口西侧","116.155306983","39.7231473299","35","0111"
"鸿顺园东区站","01110049","0111020049","揽秀南大街 鸿顺园东区西门南侧","116.157673389","39.7214757577","30","0111"
"首师大良乡校区站","01110050","0111050050","白杨东路 首师大良乡校区南门西侧","116.177635471","39.7100767597","30","0111"
"地铁良乡大学城北站","01110051","0111010051","东环路 地铁良乡大学城北站A口北侧","116.18332483","39.7307086379","30","0111"
"理工大学北区站","01110052","0111050052","理工大学北校区内","116.167307027","39.7385216506","30","0111"
"理工大学北区南门站","01110053","0111050053","良乡东路 理工大学北校区南门东侧","116.170548075","39.7311697781","30","0111"
"理工大学南区北门站","01110054","0111050054","良乡东路 理工大学南校区北门西侧","116.16963011","39.7309624366","30","0111"
"理工大学南区站","01110055","0111050055","理工大学南校区内","116.168196571","39.7269859187","30","0111"
"梅花桩南口站","01110056","0111020056","多宝路 梅花庄小区南门西侧","116.165093899","39.7394137915","30","0111"
"良乡东区十六号路站","01110057","0111020057","良乡东区十六号路与文昌西路交叉口西北侧","116.172480698","39.7394518571","30","0111"
"吴店西里站","01110058","0111020058","行宫东街 吴店西里西门北侧","116.150145545","39.7500422035","20","0111"
"黄辛庄东里东一门站","01110059","0111020059","行宫东街 黄辛庄东里东一门北侧","116.150024397","39.7526503836","20","0111"
"黄辛庄东里东二门站","01110060","0111020060","行宫东街 黄辛庄东里东二门北侧","116.149988959","39.7555869424","30","0111"
"隆曦园路站","01110061","0111020061","隆曦园路 隆曦园甲16号楼南侧","116.138378569","39.7490180573","20","0111"
"翠林漫步东区站","01110062","0111020062","翠林东街 翠林漫步东区东门北侧","116.157008388","39.7616048425","20","0111"
"兴家小区站","01110063","0111020063","苏庄西街 兴家小区西门北侧","116.119823108","39.7239296971","30","0111"
"伟业嘉园东里站","01110064","0111020064","昊天伟业嘉园东里西门南侧","116.16441789","39.7318524975","30","0111"
"伟业嘉园北里站","01110065","0111020065","昊天伟业嘉园北里东门北侧","116.159877278","39.7354337834","30","0111"
"昊天伟业嘉园站","01110066","0111020066","良乡东路 伟业嘉园公交站东侧","116.141829056","39.7492620024","30","0111"
"良乡西路东口站","01110067","0111030067","良乡西路 房山区教委南门西侧","116.132048285","39.7311441698","30","0111"
"良乡医院站","01110068","0111030068","北关西路 良乡医院门诊楼前","116.139630132","39.7360754886","25","0111"
"行宫西街西口站","01110069","0111020069","行宫西街与拱辰北大街交叉口南侧","116.144247731","39.7499218665","30","0111"
"经贸学院站","01110070","0111050070","荷花园北路 北京经贸职业学院南门东侧","116.164831608","39.7206087601","30","0111"
"翠林漫步西区站","01110071","0111020071","翠林路 翠林漫步西区北门东侧","116.152706483","39.7604558185","20","0111"
"社科院研究生院站","01110072","0111050072","良乡东路 中国社会科学院研究生院南门","116.180108305","39.7372246274","30","0111"
"隆曦园路东口站","01110073","0111020073","拱辰北大街与隆曦园路交叉口南侧","116.141829056","39.7492620024","30","0111"
"成教中心站","01110074","0111050074","广阳西路 成人教育中心北门东侧","116.157406766","39.75755906","40","0111"
"苏园二里北门站","01110075","0111020075","苏庄北路 苏园二里小区北门对面","116.123815623","39.729262058","30","0111"
"CSD商务广场站","01110076","0111030076","京周路 CSD商务广场对面天桥下","116.163401326","39.7634568354","35","0111"
"天骄俊园站","01110077","0111020077","天骄俊园西门北侧","116.175416843","39.7505156822","30","0111"
"地铁广阳城站","01110078","0111010078","东环路 地铁广阳城站B2口南侧","116.18515518","39.7478408923","30","0111"
"地铁篱笆房站","01110079","0111010079","东环路 地铁篱笆房A1口南侧","116.188844893","39.7602285329","20","0111"
"清雅小区站","01110080","0111020080","清雅小区东门南侧","116.182394443","39.7639485009","30","0111"
"长阳体育公园站","01110081","0111020081","长阳体育公园南门东侧","116.204117203","39.758932355","30","0111"
"长场路站","01110082","0111020082","祥云街4号院北门西侧","116.207302644","39.7609231177","30","0111"
"杨庄子小区站","01110083","0111020083","杨庄子小区西门北侧","116.214924471","39.7555038003","25","0111"
"管委路站","01110084","0111030084","管委路 房山区市政管委会西侧","116.1403567","39.7463364836","25","0111"
"金光路站","01110085","0111030085","金光路 房山区政府第二办公区东侧","116.133395084","39.7208114568","30","0111"
"国槐街站","01110086","0111030086","国槐街 路西汇邦国际南侧","116.131423537","39.7222963896","30","0111"
"金光北街站","01110087","0111030087","金光北街 北京华素制药公司东门南侧","116.128151337","39.7222896583","30","0111"
"赛木小镇站","01110088","0111020088","赛木小镇南门东侧","116.21202436","39.7705223707","30","0111"
"馨然家园北站","01110089","0111020089","馨然嘉园二区华味亨超市前","116.2172228","39.7588784838","25","0111"
"加州水郡西区站","01110090","0111020090","京周路 加州水郡西区3号门南侧","116.167471058","39.7684725474","30","0111"
"松园西路站","01110091","0111020091","京周路与松园西路交叉口西南侧","116.165689941","39.7661631074","20","0111"
"加州水郡东区站","01110092","0111020092","京周路 加州水郡东区西门南侧","116.167820802","39.7679728714","30","0111"
"熙悦山熹园北门站","01110093","0111020093","首开熙悦山熹园北门西侧","116.215995809","39.7704892921","25","0111"
"熙悦山熹园南门站","01110094","0111020094","首开熙悦山熹园南门西侧","116.216513823","39.7675922698","25","0111"
"地铁长阳站","01110095","0111010095","京良路 地铁长阳站A口东侧","116.214067973","39.7641168076","35","0111"
"祥云街2号院站","01110096","0111020096","祥云街2号院西门外","116.205827531","39.7625900586","25","0111"
"军留庄小区南门站","01110097","0111020097","军留庄小区南门对面东侧","116.204713451","39.7609325962","25","0111"
"新里程南站","01110098","0111020098","良乡东路 新里程南区南门外","116.186895802","39.7312218329","30","0111"
"新里程北站","01110099","0111020099"," 新里程北区南门对面","116.18811961","39.7345622825","30","0111"
"靠山居站","01110100","0111020100","京深路东侧靠山居西门南侧","116.212114484","39.8046502028","20","0111"
"广阳城新区站","01110101","0111020101","长阳路 南侧广阳城新区西门对面","116.182101178","39.7504049632","25","0111"
"北关东路站","01110102","0111020102","北关东路 北关东路与凯旋大街交叉口西北侧","116.147847083","39.7363786752","25","0111"
"金地朗悦北站","01110103","0111020103","金地朗悦沁园南门东侧","116.19300891","39.7347787584","30","0111"
"金地朗悦南站","01110104","0111020104","金地朗悦一期2号楼北侧","116.193501158","39.7330540809","30","0111"
"良官公路站","01110105","0111030105","良官公路与白杨东路交叉口东北侧","116.150231238","39.7105801268","30","0111"
"梨园站","01126001","6001","梨园路口西南侧","116.668004517","39.8841247539","96","0112"
"蓝岛大厦站","01126002","6002","云景东路东侧","116.66583178","39.8781911904","40","0112"
"新通国际花园站","01126003","6003","梨园中路西路","116.673796785","39.8820055857","36","0112"
"亚太花园站","01126004","6004","梨园北街西北侧","116.67078266","39.8864594421","20","0112"
"通州法院站","01126005","6005","梨园北街东北侧","116.678247369","39.8867723752","20","0112"
"玉桥中学站","01126006","6006","梨园北街东北侧","116.684334197","39.888682309","32","0112"
"景馨家园站","01126007","6007","梨园中路东路","116.685951465","39.8866265581","32","0112"
"万春园站","01126008","6008","运河西大街与玉桥中路交口处西侧","116.677135347","39.8921530103","32","0112"
"远洋东方站","01126009","6009","梨园路与玉桥西里中街交道口北侧","116.676029032","39.8888359058","40","0112"
"格兰晴天西门站","01126010","6010","玉桥西路南路路东","116.671851296","39.8894138567","40","0112"
"葛布店东里站","01126011","6011","运河西大街","116.66796629","39.8922181521","44","0112"
"人保公司站","01126012","6012","玉带河中街与南关交道口南侧","116.67318305","39.900089437","20","0112"
"老证券门前站","01126013","6013","玉带河东街","116.665666188","39.9000138054","20","0112"
"潞河国际东站","01126014","6014","玉带河西街","116.654941399","39.9008780477","36","0112"
"后南仓站","01126015","6015","玉带河西街","116.651332127","39.9012553541","20","0112"
"帅府园站","01126016","6016","通惠南路","116.644169725","39.9034121663","20","0112"
"消防队西站","01126017","6017","新华大街西街南侧","116.659703635","39.907932902","24","0112"
"西大街站","01126018","6018","新华大街西街与新华南路交口处路西北","116.656155675","39.9079734491","32","0112"
"工商银行站","01126019","6019","新华西街北侧","116.650177921","39.9074270982","20","0112"
"世纪联华站","01126020","6020","新华西街","116.645611891","39.9069928448","20","0112"
"北苑站","01126021","6021","京塘路与新华西街交口处","116.636755725","39.9046241783","80","0112"
"中上园小区站","01126022","6022","日化二厂对面","116.68136754","39.9012066109","28","0112"
"艺苑东里站","01126023","6023","艺苑东街","116.674157171","39.894137179","32","0112"
"卜蜂莲花站","01126024","6024","运河西大街","116.688701523","39.8922140142","20","0112"
"鑫隆市场站","01126025","6025","玉桥中路","116.677743514","39.8950552461","28","0112"
"临河里站","01126026","6026","九棵树东路","116.678708625","39.8750820568","40","0112"
"土桥站","01126027","6027","九棵树东路","116.684946349","39.8719627327","24","0112"
"小街之春站","01126028","6028","临河里路","116.687026902","39.8774986238","32","0112"
"柳岸景园站","01126029","6029","运河西大街","116.696091519","39.8929477972","32","0112"
"世纪星城站","01126030","6030","通胡大街","116.63451085","39.8927227142","44","0112"
"新华联家园站","01126031","6031","新华联南区北门","116.640741268","39.8920367562","36","0112"
"果园地铁站","01126032","6032","北苑南路","116.64745261","39.8931694783","68","0112"
"蓝山国际站","01126033","6033","新华南路","116.656870022","39.8954194288","20","0112"
"九棵树地铁站","01126034","6034","家乐福门口","116.656731126","39.8905179779","56","0112"
"当代名筑站","01126035","6035","九棵树东路","116.665589018","39.891028639","20","0112"
"南关站","01126036","6036","玉桥西路","116.669350801","39.8996939356","24","0112"
"源泉苑站","01126037","6037","史家小学对面","116.688719656","39.8864176062","20","0112"
"京艺天朗站","01126038","6038","玉桥东路","116.686194652","39.8905735766","32","0112"
"玉桥南里站","01126039","6039","玉桥中路","116.680141134","39.8896789951","40","0112"
"乔庄北街站","01126040","6040","乔庄北路","116.683556161","39.89569575","28","0112"
"新仓路北口站","01126041","6041","新华大街","116.648420543","39.9068830056","36","0112"
"潞河名苑站","01126042","6042","潞河医院北侧","116.658486652","39.903260656","20","0112"
"新城东里站","01126043","6043","新城东里西街","116.659562893","39.8981626081","36","0112"
"西海子公园站","01126044","6044","西海子西路","116.661492898","39.912902242","40","0112"
"漪春园站","01126045","6045","果园环岛东","116.660370082","39.8925726966","28","0112"
"车站路站","01126046","6046","四园厅图书馆门口","116.662703135","39.9031387965","44","0112"
"雅丽世居站","01126047","6047","北苑南路","116.643992796","39.8951447501","28","0112"
"云景阁西区","01126051","6051","云景东路","116.666524044","39.883014514","16","0112"
"云景阁东区","01126052","6052","云景东路","116.667345983","39.8831124906","16","0112"
"电信局","01126053","6053","云景东路","116.667112703","39.8819039983","20","0112"
"民生家乐超市","01126054","6054","云景东路","116.664904697","39.8761403602","24","0112"
"群芳三园","01126055","6055","云景东路","116.664628056","39.8750483491","16","0112"
"大马庄南门","01126056","6056","万盛南街","116.660787694","39.8637978961","20","0112"
"梨园镇政府","01126057","6057","云景东路","116.661484107","39.8666331416","24","0112"
"群芳二园","01126058","6058","荟萃南街","116.666091628","39.8670453796","44","0112"
"派出所","01126059","6059","云景东路","116.662823277","39.8673617146","16","0112"
"桃花岛","01126060","6060","群芳中街","116.659214355","39.8687565352","24","0112"
"鑫福运来超市","01126061","6061","云景东路","116.663894804","39.8709382297","24","0112"
"新城嘉园","01126062","6062","云景路","116.671189764","39.8771202258","20","0112"
"云景西里19#","01126063","6063","云景路","116.65922534","39.8787653619","16","0112"
"群芳一园北门","01126064","6064","云景路","116.668724988","39.8702983859","48","0112"
"孙王场","01126065","6065","云景路","116.654862476","39.8783710625","16","0112"
"梨园主题公园","01126066","6066","云景路","116.680476326","39.8716893548","24","0112"
"瑞都公园世家北门","01126067","6067","云景路","116.678206893","39.8688835252","40","0112"
"高楼金第","01126069","6069","云景路","116.686574711","39.86309435","20","0112"
"新翠景园","01126070","6070","云景路","116.655040713","39.8757700508","16","0112"
"九棵树家园","01126071","6071","云景路","116.651640436","39.8758970849","24","0112"
"小稿村","01126072","6072","云景路","116.6398757","39.870546643","36","0112"
"龙鼎园","01126073","6073","云景路","116.648274146","39.8766686474","28","0112"
"海通梧桐苑","01126074","6074","海通梧桐苑","116.643429756","39.8754542025","28","0112"
"音乐学院","01126075","6075","云景路","116.651354133","39.8748140195","24","0112"
"秀江南北门","01126076","6076","群芳中街","116.658803849","39.8660643108","28","0112"
"海棠湾南门","01126077","6077","群芳中街","116.663073693","39.8685079798","28","0112"
"公庄村委会","01126078","6078","群芳中街","116.658499083","39.87008155","36","0112"
"公庄小区","01126079","6079","云景南大街","116.659607951","39.8750749129","44","0112"
"西小马庄","01126080","6080","云景路","116.64598075","39.8799209745","24","0112"
"靓景明居","01126081","6081","云景路","116.637937667","39.8818171333","24","0112"
"烟厂家属楼","01126082","6082","云景路","116.647915105","39.8731226488","56","0112"
"翠屏南里","01126083","6083","云景路","116.649352096","39.8826023483","20","0112"
"大稿村","01126084","6084","云景路","116.636459946","39.8736530951","48","0112"
"蔚澜香醍","01126085","6085","云景路","116.648386705","39.8854191205","28","0112"
"格瑞雅居","01126086","6086","格瑞雅居","116.645480022","39.8853054279","36","0112"
"大方居北门","01126087","6087","云景路","116.631131937","39.8763708084","40","0112"
"新华联东门","01126088","6088","云景路","116.680654526","39.8673731892","24","0112"
"万盛北里菜场","01126089","6089","云景路","116.650404647","39.8701604505","56","0112"
"万盛北里","01126090","6090","云景路","116.647717284","39.8701931191","24","0112"
"云景西里34#","01126091","6091","","116.659288278","39.8793514291","32","0112"
"新城阳光","01126092","6092","云景路","116.659940289","39.8783055374","28","0112"
"翠屏便民菜店","01126093","6093","云景路","116.647385696","39.8885956626","20","0112"
"小稿村二期","01126094","6094","","116.643574709","39.8696693804","28","0112"
"公交总站","01126095","6095","云景路","116.640849361","39.8818431487","28","0112"
"东总屯","01126096","6096","云景路","116.651541348","39.888548537","24","0112"
"巴克寓所","01126097","6097","云景路","116.640204823","39.885413696","28","0112"
"曹园","01126098","6098","云景路","116.656454048","39.8613653744","24","0112"
"新华联南门","01126099","6099","云景路","116.639884242","39.8885145426","16","0112"
"李老新村","01126100","6100","云景路","116.635049253","39.8910464734","32","0112"
"翠屏北里","01126101","6101","云景路","116.644300446","39.8886069326","36","0112"
"DBC加州小镇","01126102","6102","云景路","116.6826929","39.8688157811","28","0112"
"大方居","01126103","6103","云景路","116.629400866","39.8736170928","32","0112"
"阿尔法社区","01126104","6104","云景路","116.640379098","39.8736467882","40","0112"
"花涧溪","01126105","6105","云景路","116.66977908","39.8753020418","20","0112"
"云景西里20#","01126106","6106","云景路","116.662012509","39.8779244302","28","0112"
"地税局家属院","01126108","6108","","116.688781049","39.8858800976","28","0112"
"潞河医院","01126109","6109","","116.659081797","39.9005028695","28","0112"
"郭林","01126110","6110","","116.6628564","39.9002805037","32","0112"
"通州教委","01126111","6111","","116.650538452","39.9070933826","20","0112"
"建设银行","01126112","6112","建设银行","116.644226374","39.9021119565","36","0112"
"7090小区","01126113","6113","","116.700648299","39.8826116291","28","0112"
"西关社区","01126114","6114","","116.637937378","39.9062905847","28","0112"
"新城管委","01126115","6115","","116.70167202","39.8932942201","28","0112"
"莽馨园","01126116","6116","","116.691736719","39.8969425366","40","0112"
"国土局","01126117","6117","国土局","116.681446784","39.8879687956","28","0112"
"运桥建材车站","01126118","6118","","116.692741054","39.892502322","28","0112"
"梨园东里","01126119","6119","","116.683692747","39.8824311222","28","0112"
"运河中学","01126120","6120","","116.673820772","39.892554638","40","0112"
"会议中心","01126121","6121","会议中心","116.673232732","39.9304074617","80","0112"
"武装部","01126122","6122","武装部","116.659372627","39.9294403423","24","0112"
"幸福艺居西门","01126123","6123","","116.686877402","39.8888221799","28","0112"
"国税局","01126124","6124","","116.669852725","39.8925859683","28","0112"
"梨园村北口","01126125","6125","","116.677313293","39.8832097885","36","0112"
"临河里站东","01126126","6126","","116.679873192","39.8752440009","36","0112"
"三间房车站","01126127","6127","","116.670307371","39.8860705891","28","0112"
"新通国际西","01126128","6128","","116.669938808","39.8833441864","28","0112"
"梨园村","01126129","6129","","116.672472575","39.8812033641","28","0112"
"新华联家园东门","01126130","6130","","116.6431523","39.8936304872","28","0112"
"葵花社","01126131","6131","","116.647097468","39.8921337676","20","0112"
"培智学校","01126132","6132","","116.650044473","39.8920949516","28","0112"
"杨庄商业街","01126133","6133","","116.638445367","39.8925690721","28","0112"
"冶金研究院","01126134","6134","冶金研究院","116.663771051","39.8874744805","28","0112"
"复兴里西门","01126135","6135","复兴里西门","116.641655024","39.8983537685","24","0112"
"五所宿舍","01126136","6136","","116.664898151","39.8873563056","40","0112"
"护士学校","01126137","6137","","116.649963521","39.9011231253","24","0112"
"九棵树加油站","01126138","6138","","116.659381497","39.8915207041","36","0112"
"新华西街社区","01126139","6139","新华西街","116.651339178","39.9098230902","20","0112"
"北苑办事处","01126140","6140","","116.648424924","39.9031098398","32","0112"
"果园环岛东","01126141","6141","","116.663183664","39.892254614","28","0112"
"金源泉","01126142","6142","","116.648612751","39.8932630965","40","0112"
"西果园","01126143","6143","","116.651271746","39.8924599065","48","0112"
"果园环岛西","01126144","6144","","116.654917349","39.8925260711","52","0112"
"华联商厦","01126145","6145","华联商厦","116.66899928","39.9082311166","28","0112"
"国泰百货","01126146","6146","国泰百货","116.636154615","39.9063258346","28","0112"
"大运河森林公园正门","01126147","6147","","116.744972176","39.8571285059","60","0112"
"复兴南里","01126148","6148","","116.647523369","39.8972312765","24","0112"
"陆航局家属院","01126149","6149","陆航局家属院","116.64316694","39.8875667258","28","0112"
"北苑加油站东","01126150","6150","北苑加油站东","116.637759479","39.906542053","24","0112"
"永顺镇政府","01126151","6151","永顺镇政府","116.65581894","39.9181373767","20","0112"
"地税局","01126152","6152","","116.683802378","39.8857023371","28","0112"
"长途车站","01126153","6153","","116.696514309","39.8697462582","24","0112"
"妇幼保健医院","01126154","6154","","116.682051585","39.8878548363","28","0112"
"梨园东里消防队","01126155","6155","","116.685844635","39.8833204919","28","0112"
"北苑小学","01126156","6156","","116.639447657","39.9016999929","24","0112"
"云景里","01126157","6157","云景路","116.66344041","39.8758516009","32","0112"
"阳光保险","01126158","6158","","116.676971433","39.8775600037","36","0112"
"预备役师家属院","01126159","6159","预备役师家属院","116.676500988","39.8793951244","28","0112"
"云景里农贸市场","01126160","6160","云景里农贸市场","116.664428846","39.8731546948","40","0112"
"颐瑞东里","01126161","6161","颐瑞东里","116.682360797","39.8631413536","24","0112"
"颐瑞西里","01126162","6162","颐瑞西里","116.679500824","39.8632352015","28","0112"
"通州农民合作社超市","01126163","6163","通州农民合作社超市","116.652655068","39.8858258734","24","0112"
"金桥时代家园","01126164","6164","金桥时代家园","116.668500261","39.8757335276","36","0112"
"交通局","01126165","6165","交通局","116.63861798","39.8920516472","24","0112"
"东小马庄新区","01126166","6166","东小马庄新区","116.670254697","39.8663466906","36","0112"
"贵友大厦","01126167","6167","贵友大厦","116.66676626","39.8841201423","20","0112"
"靓景明居北门","01126168","6168","靓景明居北门","116.636972658","39.8846362046","32","0112"
"半壁店新村","01126169","6169","半壁店新村","116.637636394","39.8777541017","48","0112"
"旅游区管理委员会","01126170","6170","旅游区管理委员会","116.652472277","39.8515593586","16","0112"
"怡然世家","01126171","6171","怡然世家","116.636721319","39.8813972737","28","0112"
"新城乐居","01126172","6172","新城乐居","116.690385749","39.864718536","32","0112"
"隆孚大厦","01126173","6173","隆孚大厦","116.662900769","39.8678270258","36","0112"
"通典铭居","01126174","6174","通典铭居","116.634875022","39.9066765415","20","0112"
"上营新村","01126175","6175","云景路","116.646303334","39.8782615549","40","0112"
"运乔嘉园","01126176","6176","运乔嘉园","116.692054047","39.8928756147","28","0112"
"新城基业","01126177","6177","","116.682557153","39.9128658017","28","0112"
"吉祥园小区","01126178","6178","吉祥园小区","116.666137058","39.9103244297","20","0112"
"财贸学院","01126179","6179","云景路","116.645159344","39.8849967666","28","0112"
"经贸国际","01126180","6180","经贸国际","116.623109522","39.9059904899","24","0112"
"耿庄京客隆","01126181","6181","京客隆","116.685935634","39.927164607","28","0112"
"大运河森林公园-漕运码头","01126182","6182","","116.742868569","39.8869373427","56","0112"
"大运河森林公园-南门","01126183","6183","","116.755057449","39.8540714582","32","0112"
"绿化队","01126186","6186","","116.662154285","39.8552549927","28","0112"
"北京工业大学","01126187","6187","北京工业大学","116.668929785","39.9294193987","24","0112"
"东潞苑东","01126189","6189","东潞苑东","116.678318088","39.9366993247","28","0112"
"东潞苑西","01126190","6190","东潞苑西","116.674817844","39.9366386802","36","0112"
"焦王庄","01126191","6191","焦王庄","116.681404658","39.9351998279","24","0112"
"拉维小镇南门","01126192","6192","拉维小镇南门","116.689066768","39.9329194845","24","0112"
"苏陀新村","01126193","6193","苏陀新村","116.683898431","39.9346989854","20","0112"
"霍屯小区","01126194","6194","霍屯小区","116.706434239","39.9148582896","28","0112"
"刘庄新村","01126195","6195","刘庄新村","116.674972533","39.9418096776","24","0112"
"水恋晶城","01126196","6196","水恋晶城","116.693133854","39.9164841717","20","0112"
"环卫设施所","01126197","6197","环卫设施所","116.655393818","39.8519528889","16","0112"
"晓白楼五金","01126198","6198","晓白楼五金","116.67408964","39.8770551159","20","0112"
"当代名筑西","01126199","6199","当代名筑西","116.663473235","39.8891897514","24","0112"
"华龙小区","01126200","6200","华龙小区","116.686873029","39.9308179087","28","0112"
"生活垃圾转运站","01126201","6201","生活垃圾转运站","116.637473991","39.8441349217","20","0112"
"农委","01126202","6202","农委","116.68512057","39.8931579247","32","0112"
"通景园","01126203","6203","","116.643445473","39.8775464986","32","0112"
"新潮家园东","01126204","6204","新潮家园东","116.701914077","39.935586393","36","0112"
"澜花语岸","01126205","6205","澜花语岸","116.672218986","39.9282699326","28","0112"
"耿庄家园","01126206","6206","耿庄家园","116.685229837","39.9285287947","28","0112"
"拉维小镇西门","01126207","6207","拉维小镇西门","116.68481553","39.9331073825","28","0112"
"鑫隆百货市场","01126208","6208","鑫隆百货市场","116.677771167","39.895897977","28","0112"
"珠江丽景","01126209","6209","珠江丽景","116.681896764","39.929505451","28","0112"
"六合新村","01126210","6210","六合新村","116.722813344","39.9353554744","28","0112"
"李庄新村","01126211","6211","李庄新村","116.684289819","39.944840742","28","0112"
"宋庄环岛东","01126212","6212","宋庄环岛东","116.718760755","39.9592257045","28","0112"
"艺术街路口","01126213","6213","艺术街路口","116.724698403","39.94239783","20","0112"
"国开村镇银行","01126214","6214","国开村镇银行","116.632476057","39.8953972178","28","0112"
"至善家园","01126215","6215","172.19.59.215","116.673777354","39.9298153362","32","0112"
"通州血站","01126216","6216","通州血站","116.689270354","39.9147475659","28","0112"
"北京胸科医院","01126217","6217","北京胸科医院","116.652641495","39.9225127028","20","0112"
"西上园","01126218","6218","西上园","116.676817021","39.9053026713","40","0112"
"物美大卖场","01126219","6219","物美大卖场","116.640549797","39.8925738273","36","0112"
